approssimazione,atmNonVedenti,abi,provincia,accessoDisabili,insegna,atm,cab,localita,chioschi,cap_postale,longitudine,latitudine,citta,fax,bancaId,indirizzo,atmEvoluto,telefono,cassaContinua,parcheggioRiservato,email,nome,filialeId,companyId,uuid,orario_filiale
GEOMETRIC_CENTER,False,03111,AL,False,UBI Banca,True,10400,Alessandria,False,15100,8.619950294494629,44.91289138793945,Alessandria,0131232677,10,Via Dante Alighieri,False,0131236161,False,False,bre-0484@brebanca.it,Filiale di Alessandria - Via Dante,7023,10112,500a7638-fac3-49a7-83b9-8f53c3a81ab8,
5-OK,False,03111,AL,False,UBI Banca,False,48710,Arquata Scrivia,False,15061,8.888059616088867,44.685909271240234,Arquata Scrivia,,10,"Via Libarna, 56",False,0143635211,False,False,bre-0399@brebanca.it,Minisportello di Arquata Scrivia - Filiale di Vignole Borbera,7311,10112,4723a7d8-2ad4-4fb9-878b-3353186c95fc,
0-OK,False,03111,AL,False,UBI Banca,True,48070,Cabella Ligure,False,15060,9.09397029876709,44.67428970336914,Cabella Ligure,0143919606,10,Piazza della Vittoria 7,False,014399055,False,False,bre-0375@brebanca.it,Minisportello di Cabella Ligure - Filiale di Vignole Borbera,7314,10112,f362e56a-99fe-49ac-9767-58592ec555a2,
5-OK,False,03111,AL,False,UBI Banca,True,48480,Casalnoceto,False,15052,8.982885360717773,44.913421630859375,Casalnoceto,0131809612,10,Piazza M.D.Libertà 10,False,0131809128,False,False,bre-0387@brebanca.it,Minisportello di Casalnoceto - Filiale di Pontecurone,7315,10112,965c5464-0b01-4d5d-a062-4b17b6a5ecf4,
5-OK,False,03111,AL,False,UBI Banca,True,48190,Castelnuovo Scrivia,False,15053,8.879590034484863,44.98106002807617,Castelnuovo Scrivia,0131823466,10,Via Solferino 11,False,0131823382,False,False,bre-0359@brebanca.it,Filiale di Castelnuovo Scrivia,7316,10112,0f85a875-36f6-455a-b10b-fd53b25d7a3c,
0-OK,False,03111,AL,False,UBI Banca,True,48300,Garbagna,False,15050,8.998950004577637,44.782718658447266,Garbagna,0131877799,10,"Via Roma, 21",False,0131877646,False,False,bre-0377@brebanca.it,Minisportello di Garbagna - Filiale di Vignole Borbera,7317,10112,2b37beb1-6e18-432f-9adb-d9a1e3ab6c4a,
4-Toponimo_non_trovato,False,03111,AL,False,UBI Banca,True,48330,Isola Sant' Antonio,False,15050,8.850130081176758,45.030609130859375,Isola Sant' Antonio,0131857585,10,"Piazza Peso Pubblico,1",False,0131857136,False,False,bre-0382@brebanca.it,Minisportello di Isola Sant'Antonio - Filiale di Castelnuovo Scrivia,7318,10112,dcf261ea-df1b-4701-83f3-9419d8ad25a2,
5-OK,False,03111,AL,False,UBI Banca,True,48390,Monleale,False,15059,8.982950210571289,44.88591003417969,Monleale,0131806611,10,Corso Roma 41,False,013180122,False,False,bre-0384@brebanca.it,Filiale di Monleale,7319,10112,40d8dce7-2e35-422f-ab8a-6fe07a117086,
5-OK,False,03111,AL,False,UBI Banca,True,48420,Novi Ligure,False,15067,8.790630340576172,44.76039505004883,Novi Ligure,0143321340,10,Corso Marenco 141,False,0143322030,False,False,bre-0386@brebanca.it,Filiale di Novi Ligure,7320,10112,c126b016-f64a-4990-bcb9-f2e822051401,
5-OK,False,03111,AL,False,UBI Banca,True,48480,Pontecurone,False,15055,8.933259963989258,44.96052932739258,Pontecurone,0131886322,10,Piazza Matteotti 5,False,0131887055,False,False,bre-0387@brebanca.it,Filiale di Pontecurone,7321,10112,913298e5-45d8-4806-af11-b557fa898c6e,
5-OK,False,03111,AL,False,UBI Banca,True,48510,Pozzolo Formigaro,False,15068,8.78402042388916,44.79161071777344,Pozzolo Formigaro,0143418877,10,Via Roma 31,False,0143417006,False,False,bre-0389@brebanca.it,Filiale di Pozzolo Formigaro,7322,10112,b7839aeb-d6b1-470c-9c9e-0293eb2d3c31,
0-OK,False,03111,AL,False,UBI Banca,True,48070,Rocchetta Ligure,False,15060,9.050580024719238,44.7081298828125,Rocchetta Ligure,014390404,10,Piazza Reg. Margherita,False,014390003,False,False,bre-0375@brebanca.it,Minisportello di Rocchetta Ligure - Filiale di Vignole Borbera,7323,10112,64d43c1e-7093-413b-8918-da0a297011bc,
5-OK,False,03111,AL,False,UBI Banca,True,48677,Sarezzano,False,15050,8.902560234069824,44.87556838989258,Sarezzano,0131884374,10,"Piazza L. Sarzano,4",False,0131884139,False,False,bre-0098@brebanca.it,Minisportello di Sarezzano - Sede di Tortona,7325,10112,d0aa7efd-c17d-4e73-bcb5-63bfd815fd3f,
5-OK,False,03111,AL,False,UBI Banca,True,48674,Tortona,False,15057,8.863100051879883,44.90016174316406,Tortona,0131822055,10,"Corso Della Repubblica, 2/D",False,0131822008,False,False,bre-0093@brebanca.it,Minisportello di Tortona corso della Repubblica - Sede di Tortona,7328,10112,804350c2-630b-4cbb-814f-e5e6562bc344,
0-OK,False,03111,AL,False,UBI Banca,True,48670,Tortona,True,15057,8.865639686584473,44.897159576416016,Tortona,0131819331,10,"Piazza Duomo, 13",False,01318191,False,False,bre-0098@brebanca.it,Filiale di Tortona Sede,7330,10112,ddcc0b39-a472-48cf-94db-36aa574f6e1a,
5-OK,False,03111,AL,False,UBI Banca,True,48710,Vignole Borbera,False,15060,8.89179515838623,44.70800018310547,Vignole Borbera,014367324,10,"Via Manzoni, 8",False,0143673245,False,False,bre-0399@brebanca.it,Filiale di Vignole Borbera,7333,10112,f710617c-6e6a-4714-8d1d-2d7074cb2f8c,
5-OK,False,03111,AL,False,UBI Banca,True,48730,Villalvernia,False,15050,8.855110168457031,44.8137092590332,Villalvernia,0131836922,10,"Via Carbone, 69",False,013183139,False,False,bre-0459@brebanca.it,Minisportello di Villalvernia - Filiale di Pozzolo Formigaro,7334,10112,fb5dcbd3-c998-49e6-ac7a-0ba7ead374dd,
5-OK,False,03111,AL,False,UBI Banca,True,48790,Stazzano,False,15060,8.868240356445312,44.728248596191406,Stazzano,014362332,10,Via Fossati 2/A,False,014365102,False,False,bre-0397@brebanca.it,Filiale di Stazzano,7336,10112,377d4508-3898-4daf-9118-2ed4fe39de17,
0-OK,False,03111,AL,False,UBI Banca,True,47940,Acqui Terme,False,15011,8.468720436096191,44.67189025878906,Acqui Terme,0144312897,10,"Corso Bagni, 54",False,0144312912,False,False,bre-0228@brebanca.it,Filiale di Acqui Terme,7711,10112,fd02b461-2d3b-4366-99a9-c7f8f48d8d81,
0-OK,False,03111,AL,False,UBI Banca,True,22601,Casale Monferrato,False,15033,8.449350357055664,45.135040283203125,Casale Monferrato,014273190,10,"Piazza San Francesco, 10",False,014276989,False,False,bre-0139@brebanca.it,Filiale di Casale Monferrato - Piazza San Francesco,5899,10112,dbffbb72-4b6a-4ef1-bf70-4679218cc4d8,
5-OK,False,03111,AL,False,UBI Banca,True,48680,Valenza,False,15048,8.641850471496582,45.01190185546875,Valenza,0131922940,10,"Via Dante, 68",False,0131922911,False,False,bre-0185@brebanca.it,Filiale di Valenza - Via Dante,6195,10112,8656629b-b670-46b1-ba01-1294308d6996,
RANGE_INTERPOLATED,False,03111,AL,False,UBI Banca,True,48450,Ovada,False,15076,8.648422241210938,44.63749313354492,Ovada,014380184,10,"Viao Torino, 135",False,014381676,False,False,bre-0097@brebanca.it,Filiale di Ovada,8291,10112,a953cd43-8637-40a6-960b-eed07fd9e959,
RANGE_INTERPOLATED,False,03111,AL,False,UBI Banca,True,48677,Tortona,False,15057,8.862434387207031,44.893619537353516,Tortona,,10,"Piazza Felice Cavallotti, 1",False,0131815087,False,False,bre-0098@brebanca.it,Minisportello di Tortona c/o ASL - Sede di Tortona,8691,10112,47371f01-59af-4e4b-8a4e-15554c718f35,
APPROXIMATE,False,03111,AL,False,UBI Banca,True,22601,Casale Monferrato,False,15033,8.469069480895996,45.12630081176758,Casale Monferrato,014279604,10,"Viale Giovanni Giolitti,2",False,0142452852,False,False,bre-0139@brebanca.it,Minisportello di Casale Monferrato c/o ASL 21 - Filiale di Casale Monferrato,8294,10112,34094ad5-3412-473f-ac2b-d94c52d33d7a,
5-OK,False,03111,AN,False,UBI Banca,True,37580,Santa Maria Nuova,False,60030,13.318129539489746,43.493289947509766,Santa Maria Nuova,0731245729,10,"Via Risorgimento, 68",False,0731245711,False,False,ban-0282@bpa.it,Filiale di Santa Maria Nuova - Collina,6029,10112,6eba255b-82c6-4138-8360-2d8a74d34fda,
0-OK,False,03111,AN,False,UBI Banca,True,37600,Serra De' Conti,False,60030,13.037409782409668,43.54159927368164,Serra De'Conti,0731879526,10,"Piazza G. Leopardi, 4",False,0731879415,False,False,ban-0283@bpa.it,Filiale di Serra De' Conti,6030,10112,e905acf8-0126-4c66-9904-e24b93851e4f,
0-OK,False,03111,AN,False,UBI Banca,True,21264,Jesi,False,60035,13.22424030303955,43.516571044921875,Jesi,0731200236,10,"Piazza D. Ricci, 4",False,0731200236,False,False,ban-0298@bpa.it,Filiale di Jesi - P.zza Ricci,5881,10112,d02248cf-0d46-4d2c-a87d-cfa566923fea,
0-OK,False,03111,AN,False,UBI Banca,True,21285,Jesi,True,60035,13.243029594421387,43.52211380004883,Jesi,0731647265,10,"Corso Matteotti, 1",False,0731218611,False,False,ban-0299@bpa.it,Filiale di Jesi Sede,5882,10112,fbb6bb24-1e73-4afb-8096-ae7a682b051a,
0-OK,False,03111,AN,False,UBI Banca,True,21296,Jesi,False,60035,13.248490333557129,43.52885055541992,Jesi,0731647992,10,"Via San Giuseppe, 38",False,0731239211,False,False,ban-0296@bpa.it,Filiale di Jesi - Via San Giuseppe,5883,10112,c7ce6a3b-7c28-49b7-86a7-54c2caac8058,
0-OK,False,03111,AN,False,UBI Banca,True,21100,Fabriano,True,60044,12.906530380249023,43.33464050292969,Fabriano,0732635355,10,"Piazza Miliani, 16",False,0732635311,False,False,ban-0295@bpa.it,Filiale di Fabriano,5876,10112,1558f649-3df6-40cd-86d0-0cb9b0349a21,
5-OK,False,03111,AN,False,UBI Banca,True,21285,Jesi,False,60035,13.2283296585083,43.53096008300781,Jesi,0731209189,10,"Piazza A.Vesalio, 5",False,0731209189,False,False,ban-1776@bpa.it,Minisportello di Jesi P.zza A. Vesalio - Filiale sede di Jesi,5879,10112,64a3b7fb-2701-444b-a475-8ed96ba397b3,
5-OK,False,03111,AN,False,UBI Banca,True,21300,Senigallia,False,60019,13.218734741210938,43.71448516845703,Senigallia,0717916290,10,"Via Giovanni Marchetti, 70",False,0717916211,False,False,ban-0293@bpa.it,Filiale di Senigallia Sede,5885,10112,deff0255-4b32-45f3-b451-a1aa304cb767,
5-OK,False,03111,AN,False,UBI Banca,True,21300,Senigallia,False,60019,13.196999549865723,43.730709075927734,Senigallia,,10,"Via R. Sanzio, 288",False,0717929582,False,False,ban-0293@bpa.it,Sede di Senigallia - Minisportello di Senigallia Via R. Sanzio,5887,10112,467847b2-ed50-4f04-a14c-4f1673faf42f,
5-OK,False,03111,AN,False,UBI Banca,True,37420,Montemarciano,False,60016,13.344064712524414,43.651153564453125,Montemarciano,0719198237,10,"Piazza Magellano, 15",False,0719198715,False,False,ban-0289@bpa.it,Filiale di Montemarciano - Marina,6019,10112,f349107e-7364-430d-a9c2-e3bd86fd4f4d,
5-OK,False,03111,AN,False,UBI Banca,True,05438,Monterado,False,60010,13.10103988647461,43.726318359375,Monterado,0717950381,10,"Via VIII Marzo, 7 -  Fraz. Ponte Pio",False,0717950381,False,False,ban-0284@bpa.it,Filiale di Monterado - Ponte Rio,6020,10112,0800e4eb-4483-4ba1-83e2-6dc5f9c83442,
5-OK,False,03111,AN,False,UBI Banca,True,37460,Morro D'alba,False,60030,13.213665008544922,43.60193634033203,Morro D'alba,073163035,10,"Via Morganti, 56",False,073163035,False,False,ban-0266@bpa.it,Minisportello di Morro d'Alba - Filiale di Montemarciano - Marina,6021,10112,bb740f40-9787-4618-b877-9c3d9288c11e,
0-OK,False,03111,AN,False,UBI Banca,True,37320,Agugliano,False,60020,13.389209747314453,43.551090240478516,Agugliano,071908672,10,"Contrada Gavone, 2/B",False,071908672,False,False,ban-0829@bpa.it,Minisportello di Agugliano -Filiale di Chiaravalle,6010,10112,91e95707-4f1f-4a3b-80c9-a67dd4ddcccb,
5-OK,False,03111,AN,False,UBI Banca,True,37280,Castelfidardo,False,60023,13.546330451965332,43.464229583740234,Castelfidardo,0717822675,10,"Via C.Battisti, 5",False,0717822675,False,False,ban-0277@bpa.it,Filiale di Castelfidardo,6012,10112,187923f2-50ad-473a-bab6-312be569355f,
0-OK,False,03111,AN,False,UBI Banca,True,37320,Chiaravalle,False,60033,13.323980331420898,43.600189208984375,Chiaravalle,0717451157,10,Via della Repubblica 83,False,0717451157,False,False,ban-0829@bpa.it,Filiale di Chiaravalle,6013,10112,a6662a0c-879e-45b5-9d4c-a8a088304928,
5-OK,False,03111,AN,False,UBI Banca,True,37340,Cupramontana,False,60034,13.115639686584473,43.44525146484375,Cupramontana,0731780201,10,"Piazza Cavour, 11",False,0731780201,False,False,ban-0279@bpa.it,Filiale di Cupramontana,6014,10112,4fd47059-022e-44fa-a3e5-c36063a0b23c,
-,False,03111,AN,False,UBI Banca,True,37350,Falconara Marittima,False,60015,13.397705078125,43.62971115112305,Falconara Marittima,071914843,10,"Via IV Novembre, 8",False,071914843,False,False,ban-0262@bpa.it,Filiale di Falconara Marittima,6015,10112,68f2fc76-f452-420b-bda1-580eba547334,
0-OK,False,03111,AN,False,UBI Banca,True,37380,Loreto,True,60025,13.608539581298828,43.43851089477539,Loreto,071977555,10,Via Bramante,False,071977555,False,False,ban-0297@bpa.it,Filiale di Loreto,6017,10112,23e29bda-2591-466a-aa15-d0e4ef14a1ad,
5-OK,False,03111,AN,False,UBI Banca,True,37390,Maiolati Spontini,False,60030,13.134454727172852,43.5022087097168,Maiolati Spontini,0731703681,10,Via Risorgimento 52,False,0731703631,False,False,ban-0269@bpa.it,Filiale di Maiolati Spontini - Moie,6018,10112,f0b00286-072c-4332-a0fe-4799771111b1,
0-OK,False,03111,AN,False,UBI Banca,True,37470,Numana,False,60026,13.621729850769043,43.51327896118164,Numana,0717360344,10,"Via Giovanni Pascoli, 1A",False,0717360344,False,False,ban-0259@bpa.it,Minisportello di Numana - Filiale di Castelfidardo,6022,10112,edf55200-f204-427e-b1df-24da73cd0a0a,
0-OK,False,03111,AN,False,UBI Banca,True,37490,Osimo,False,60027,13.481405258178711,43.485904693603516,Osimo,0717138245,10,"Piazza Del Comune, 4",False,0717138211,False,False,ban-0287@bpa.it,Filiale di Osimo Sede,6024,10112,d68436af-8bcb-4da1-8b0a-08075a71abf4,
ROOFTOP,False,03111,AN,False,UBI Banca,True,37490,Osimo,False,60027,13.466411590576172,43.47038650512695,Osimo,,10,"Via Ticino, 1",False,0717232172,False,False,ban-0287@bpa.it,Filiale di Osimo Sede - MInisportello di Osimo Padiglione,6026,10112,ce905c4e-f966-4e26-bfef-4ea4fd66def5,
5-OK,False,03111,AN,False,UBI Banca,True,37390,Rosora,False,60030,13.07390022277832,43.4755744934082,Rosora,0731813645,10,"Via Roma, 132",False,0731813645,False,False,ban-0275@bpa.it,Minisportello di Rosora - Angeli - Filiale di Maiolati Spontini - Moie,6028,10112,7620e090-ed6c-44e5-aa9c-7db594573161,
0-OK,False,03111,AN,False,UBI Banca,True,02611,Ancona,False,60131,13.516414642333984,43.57861328125,Ancona,0712867411,10,Via Brecce Bianche 68/I,False,0712867411,False,False,ban-0256@bpa.it,Filiale di Ancona - Brecce Bianche,6888,10112,f5708077-ea01-42a6-afbc-2d28b33bdc07,
0-OK,False,03111,AN,False,UBI Banca,True,02684,Ancona,False,60122,13.510640144348145,43.618011474609375,Ancona,071504278,10,"Corso Stamira, 14",False,0715041,False,False,ban-0255@bpa.it,Filiale di Ancona Sede,6889,10112,9d66ce7d-133e-4d1a-bea0-226c55ef1a68,
0-OK,False,03111,AN,False,UBI Banca,True,02691,Ancona,False,60127,13.506155014038086,43.60131072998047,Ancona,0712818733,10,"Viale C. Colombo, 56",False,0712814469,False,False,ban-0257@bpa.it,Filiale di Ancona - Viale Colombo,6890,10112,916b2cd3-f23f-4f69-9b7f-5f08bbefd4c2,
GEOMETRIC_CENTER,False,03111,AN,False,UBI Banca,True,02601,Ancona,False,60131,13.514448165893555,43.53646469116211,Ancona,0712868298,10,Via Umani,False,0712868291,False,False,ban-0288@bpa.it,Minisportello di Ancona Via Umani - Filiale di Ancona Brecce Bianche,6885,10112,82a3bee2-795e-4f52-b7e7-63c36fd79e43,
5-OK,False,03111,AN,False,UBI Banca,True,37590,Sassoferrato,False,60041,12.857560157775879,43.43185043334961,Sassoferrato,0732959280,10,"Piazza Bartolo, 17",False,073296496,False,False,ban-0523@bpa.it,Filiale di Fabriano - Minisportello di Sassoferrato,7223,10112,1e164c2d-69e3-4cad-8155-5322a96dc3ba,
RANGE_INTERPOLATED,False,03111,AN,False,UBI Banca,True,37360,Filottrano,False,60024,13.350069046020508,43.43593215942383,Filottrano,0717220192,10,"Via Oberdan, 5",False,0717221434,False,False,ban-0031@bpa.it,Filiale di Santa Maria Nuova - Collina - Minisportello di Filottrano,7991,10112,1fdb313d-644c-4fba-b199-1a77949337aa,
RANGE_INTERPOLATED,False,03111,AN,False,UBI Banca,True,21296,Jesi,False,60035,13.264809608459473,43.536861419677734,Jesi,,10,"Via Don Battistoni, 4",False,0731249811,False,False,ban-0296@bpa.it,Minisportello di Jesi Z.I.P.A. - Filiale di Jesi Via S. Giuseppe,7899,10112,ffb7965d-aeef-49f1-aae9-da47cd57924e,
0-OK,False,03111,AO,False,UBI Banca,True,01200,Aosta,False,11100,7.320815086364746,45.73819351196289,Aosta,016531885,10,"Via Xavier De Maistre, 8",False,0165261424,False,False,bre-0238@brebanca.it,Filiale di Aosta,6739,10112,9eda1c68-8d08-4623-bf62-93c651970fba,
0-OK,False,03111,AP,False,UBI Banca,True,13500,Ascoli Piceno,False,63100,13.592394828796387,42.854278564453125,Ascoli Piceno,0736346591,10,"Viale Indipendenza, 42",False,073645736,False,False,ban-0315@bpa.it,Filiale di Ascoli Piceno,5820,10112,5b6490c8-bb3f-486e-93c5-eed325a2e3c5,
0-OK,False,03111,AP,False,UBI Banca,True,24400,San Benedetto Del Tronto,False,63037,13.892684936523438,42.909820556640625,San Benedetto Del Tronto,0735760555,10,Piazza E. Setti Carraro,False,0735760511,False,False,ban-0308@bpa.it,Filiale di San Benedetto Del Tronto - Porto D`Ascoli,5921,10112,c73c631e-06ea-421a-82d7-d92e6526788c,
5-OK,False,03111,AP,False,UBI Banca,True,24402,San Benedetto Del Tronto,False,63074,13.880049705505371,42.9510383605957,San Benedetto Del Tronto,0735588378,10,"Piazza Matteotti, 6",False,0735588378,False,False,ban-0342@bpa.it,Minisportello di San Benedetto del Tronto Piazza Matteotti - Filiale di San Benedetto Del Tronto Porto d'Ascoli,5922,10112,97201202-b5b2-4656-9189-3d6404e261b6,
5-OK,False,03111,AP,False,UBI Banca,True,69390,Castel Di Lama,False,63082,13.72280502319336,42.864234924316406,Castel Di Lama,0736814793,10,"Via Salaria, 356",False,0736814793,False,False,ban-0307@bpa.it,Minisportello di Castel di Lama - Filiale di Ascoli Piceno,6477,10112,b494385f-c956-468f-b5b9-fd96a1d9e10f,
RANGE_INTERPOLATED,False,03111,AP,False,UBI Banca,True,13500,Acquasanta Terme,False,63095,13.410921096801758,42.77056884765625,Acquasanta Terme,,10,"Piazza Terme, 6",False,0736802369,False,False,ban-0315@bpa.it,Minisportello di Acquasanta Terme - Filiale di Ascoli Piceno,9791,10112,4713183b-09e0-4264-9867-50bcfd2dde02,
0-OK,False,03111,AT,False,UBI Banca,True,10300,Asti,False,14100,8.208845138549805,44.90166473388672,Asti,014130916,10,"Corso Vittorio Alfieri, 137",False,014130800,False,False,bre-0194@brebanca.it,Filiale di Asti - Corso Alfieri,7022,10112,525c44fe-1fc0-47b4-86f4-f5a81233e644,
5-OK,False,03111,AT,False,UBI Banca,True,47590,Nizza Monferrato,False,14049,8.355050086975098,44.77266311645508,Nizza Monferrato,0141702838,10,"Piazza Garibaldi, 70",False,0141701406,False,False,bre-0195@brebanca.it,Filiale di Nizza Monferrato,7310,10112,dd839988-f7c6-423b-a62c-03a90c159afb,
0-OK,False,03111,AT,False,UBI Banca,True,46840,Canelli,False,14053,8.288020133972168,44.71598815917969,Canelli,0141824093,10,"Corso Libertà, 68",False,0141824881,False,False,bre-0550@brebanca.it,Minisportello di Canelli - Filiale di Santo Stefano Belbo,6192,10112,c67a6670-4c68-40f5-bdd8-9e31131feb18,
0-OK,False,03111,AV,False,UBI Banca,True,15101,Avellino,False,83100,14.785860061645508,40.914249420166016,Avellino,082522163,10,Via Dante Alighieri 20/24,False,082521472,False,False,ban-0702@bpa.it,Filiale di Avellino,5827,10112,3dc5c3c0-f90e-4890-beb5-831b40594fed,
GEOMETRIC_CENTER,False,03111,AV,False,UBI Banca,True,15101,Montoro,False,83025,14.773638725280762,40.867916107177734,Montoro,082550240,10,Via Nazionale 161/167,False,0825502521,False,False,ban-0702@bpa.it,Minisportello di Montoro - Filiale di Avellino,6519,10112,f521cb1e-99cf-48df-b772-58922cb515f5,
RANGE_INTERPOLATED,False,03111,BA,False,UBI Banca,False,04000,Bari,False,70121,16.867395401000977,41.120758056640625,Bari,,10,"Piazza Cesare Battisti, 1",False,,False,False,,"Minisportello di Bari c/o Università di Bari, filiale di Bari, Agenzia Centrale",11192,10112,661b1c1f-123d-4435-8b5e-f14ea8f5e8e7,
0-OK,False,03111,BA,False,UBI Banca,True,04000,Bari,True,70122,16.86836051940918,41.123931884765625,Bari,0805202022,10,"Via Calefati, 100",False,0805202111,False,False,brm-6001@carime.it,Filiale di Bari - Agenzia Centrale,6982,10112,f5e7e6fb-9fc5-4def-addb-6393acae4cba,
0-OK,False,03111,BA,False,UBI Banca,True,04001,Bari,False,70125,16.87248420715332,41.10880661010742,Bari,0805428243,10,Via G. Toma 12,False,0805428977,False,False,brm-6002@carime.it,Filiale di Bari - Agenzia 1,6985,10112,06c3206e-4adb-4d35-b1f5-e70fcbbced47,
0-OK,False,03111,BA,False,UBI Banca,True,04002,Bari,False,70124,16.859289169311523,41.10158157348633,Bari,0805041489,10,Viale Pio XII 46/46a,False,0805610444,False,False,brm-6005@carime.it,Filiale di Bari - Agenzia 2,6986,10112,d47bba62-66af-47c0-ab31-14b429575055,
5-OK,False,03111,BA,False,UBI Banca,True,04004,Bari,False,70012,16.871700286865234,41.073974609375,Bari,0805032230,10,Piazza Umberto I 85,False,0805033131,False,False,brm-6003@carime.it,Filiale di Bari - Carbonara,6988,10112,10cd8935-5fb8-4ecf-bca6-66c4acb5f4a7,
0-OK,False,03111,BA,False,UBI Banca,True,04005,Bari,False,70050,16.861644744873047,41.1267204284668,Bari,0805331491,10,Via Napoli 53/55,False,0805336022,False,False,brm-6004@carime.it,Filiale di Bari - Santo Spirito,6989,10112,7ac39ef9-e2af-4e55-84f9-d4b2f3bea9ac,
0-OK,False,03111,BA,False,UBI Banca,True,04006,Bari,False,70045,16.996295928955078,41.08561325073242,Bari,0805433292,10,"Via Bari, 27",False,0805430019,False,False,brm-6006@carime.it,Filiale di Bari - Torre a Mare,6990,10112,10a5148a-8810-441b-9f79-5fb7b8f60a02,
0-OK,False,03111,BA,False,UBI Banca,True,04002,Bari,False,70125,16.885475158691406,41.09995651245117,Bari,0805484565,10,Via Tridente 40/42,False,0805461347,False,False,brm-6005@carime.it,"Filiale di Bari, Agenzia 11",6997,10112,1832ffa6-94be-439d-8859-f51f27d225fa,
5-OK,False,03111,BA,False,UBI Banca,True,04011,Bari,False,70123,16.852190017700195,41.1251335144043,Bari,0805797632,10,"Corso Mazzini, 138/B",False,0805797630,False,False,brm-6051@carime.it,Filiale di Bari - Agenzia 8,6995,10112,07b91eac-12d1-4b5e-abc6-aa23b8561809,
0-OK,False,03111,BA,False,UBI Banca,True,04000,Bari,False,70121,16.88779067993164,41.118568420410156,Bari,0805537652,10,Via Dalmazia 223,False,0805537630,False,False,brm-6001@carime.it,"Minisportello di Bari - Agenzia 10/ Filiale di Bari, Agenzia Centrale",6996,10112,d8500ff5-aefa-4adb-a369-50b37ee90878,
5-OK,False,03111,BA,False,UBI Banca,True,41300,Acquaviva Delle Fonti,False,70021,16.844810485839844,40.8968391418457,Acquaviva Delle Fonti,080768951,10,"Piazza Giuseppe Garibaldi, 49",False,080762055,False,False,brm-6010@carime.it,Filiale di Acquaviva delle Fonti,6081,10112,aade24fd-cf07-466d-a49e-360928dc04ca,
5-OK,False,03111,BA,False,UBI Banca,False,41310,Adelfia,False,70010,16.871530532836914,41.00183868408203,Adelfia,0804594063,10,Via Marconi 11-A,False,0804596192,False,False,brm-6011@carime.it,Filiale di Adelfia,6082,10112,65681a00-f5ca-43ce-97a7-1235fb149431,
0-OK,False,03111,BA,False,UBI Banca,True,41330,Altamura,False,70022,16.55034065246582,40.828609466552734,Altamura,0803105360,10,"Via Maggio 1648, 22",False,0803105388,False,False,brm-6012@carime.it,Filiale di Altamura,6083,10112,27da6554-8542-49e4-9172-0874927613b6,
0-OK,False,03111,BA,False,UBI Banca,True,41570,Monopoli,False,70043,17.299224853515625,40.951351165771484,Monopoli,0809303114,10,"Via Marsala, 2",False,0809303066,False,False,brm-6030@carime.it,Filiale di Monopoli,6103,10112,20d157ee-3907-4658-9ec1-39b5ad2b3cdb,
5-OK,False,03111,BA,False,UBI Banca,True,41580,Noci,False,70015,17.12194061279297,40.79597091674805,Noci,0804979334,10,"Piazza Giuseppe Garibaldi, 51",False,0804977198,False,False,brm-6031@carime.it,Filiale di Noci,6104,10112,66c494e2-af3a-4924-ab1a-6fe673629837,
5-OK,False,03111,BA,False,UBI Banca,True,41590,Noicattaro,False,70016,16.984569549560547,41.03281021118164,Noicattaro,0804785954,10,"Corso Roma, 8-A",False,0804782210,False,False,brm-6033@carime.it,Filiale di Noicattaro,6105,10112,968b8eaa-b8d6-4a43-911f-0a931df47705,
0-OK,False,03111,BA,False,UBI Banca,True,41380,Bitonto,False,70032,16.688589096069336,41.10979080200195,Bitonto,0803717019,10,"Piazza Della Noce, 14",False,0803751568,False,False,brm-6015@carime.it,Filiale di Bitonto,6089,10112,d4818315-e488-466c-b62d-a9224330f304,
5-OK,False,03111,BA,False,UBI Banca,True,41410,Capurso,False,70010,16.920490264892578,41.04853057861328,Capurso,0804559878,10,"Via Torricella, 23",False,0804551115,False,False,brm-6018@carime.it,Filiale di Capurso,6092,10112,5eb51fc1-9b0a-4836-bbe2-9feb7ae8f34e,
5-OK,False,03111,BA,False,UBI Banca,True,41420,Casamassima,False,70010,16.9191951751709,40.9542236328125,Casamassima,0806530849,10,Corso Umberto I 48,False,0806530846,False,False,brm-6019@carime.it,Filiale di Casamassima,6093,10112,11f6f479-cc4d-4893-8d8a-23f5fdc16ebf,
5-OK,False,03111,BA,False,UBI Banca,True,41440,Castellana Grotte,False,70013,17.167774200439453,40.88552474975586,Castellana Grotte,0804961843,10,Piazza Della Repubblica 2,False,0804965170,False,False,brm-6020@carime.it,Filiale di Castellana Grotte,6094,10112,91d40d93-a25f-4c4d-b650-ea92fdbe321a,
0-OK,False,03111,BA,False,UBI Banca,True,41470,Corato,False,70033,16.410654067993164,41.1490592956543,Corato,0808986843,10,"Viale Vittorio Veneto, 160",False,0808986856,False,False,brm-6055@carime.it,Filiale di Corato,6095,10112,2ea92767-40c3-455d-a325-03f72b40909b,
5-OK,False,03111,BA,False,UBI Banca,True,41480,Gioia Del Colle,False,70023,16.921510696411133,40.79909896850586,Gioia Del Colle,0803430401,10,"Corso Garibaldi, 55",False,0803434411,False,False,brm-6022@carime.it,Filiale di Gioia Del Colle,6096,10112,fe95b5cf-495a-4138-a1d4-64eac54be208,
5-OK,False,03111,BA,False,UBI Banca,True,41560,Giovinazzo,False,70054,16.67463493347168,41.18685531616211,Giovinazzo,0803947850,10,"Via G. Gentile, 1",False,0803947838,False,False,brm-6028@carime.it,Minisportello di Giovinazzo - Filiale di Molfetta,6097,10112,45ba0396-ce14-4dc0-8529-768cd3124203,
0-OK,False,03111,BA,False,UBI Banca,True,41500,Gravina In Puglia,False,70024,16.416240692138672,40.81626892089844,Gravina In Puglia,0803267608,10,"Corso Vittorio Emanuele, 30/C",False,0803267498,False,False,brm-6023@carime.it,Filiale di Gravina In Puglia,6098,10112,e818dc62-b97b-48cf-b3d5-547a4576d1be,
5-OK,False,03111,BA,False,UBI Banca,True,41510,Grumo Appula,False,70025,16.708179473876953,41.011478424072266,Grumo Appula,080622009,10,"Via Giovanni D'erasmo, 12",False,080622944,False,False,brm-6024@carime.it,Filiale di Grumo Appula,6099,10112,151e1b1a-f629-456c-9194-149b432c9eab,
0-OK,False,03111,BA,False,UBI Banca,True,41540,Modugno,False,70026,16.778514862060547,41.08335876464844,Modugno,0805323946,10,"Piazza Garibaldi, 109",False,0805328533,False,False,brm-6026@carime.it,Filiale di Modugno,6100,10112,2fb2f237-65cd-449c-a183-50b13b427341,
5-OK,False,03111,BA,False,UBI Banca,True,41550,Mola Di Bari,False,70042,17.088499069213867,41.0589714050293,Mola Di Bari,0804744655,10,"Piazza Degli Eroi, 31",False,0804741085,False,False,brm-6027@carime.it,Filiale di Mola di Bari,6101,10112,0dc5ec4f-df05-4f5b-adfc-64eacb07af51,
0-OK,False,03111,BA,False,UBI Banca,True,41560,Molfetta,False,70056,16.60280990600586,41.20246887207031,Molfetta,0803971334,10,"Via Fiorino Tenente, 9",False,0803975306,False,False,brm-6028@carime.it,Filiale di Molfetta,6102,10112,d1f1cb2b-9b06-4523-aa21-041053df7912,
5-OK,False,03111,BA,False,UBI Banca,True,41620,Polignano A Mare,False,70044,17.220014572143555,40.99478530883789,Polignano A Mare,0804265669,10,"Piazza Aldo Moro, 1",False,0804265664,False,False,brm-6034@carime.it,Filiale di Polignano A Mare,6106,10112,7e93f1db-a3a1-4b06-a695-af3e17ee3f68,
5-OK,False,03111,BA,False,UBI Banca,True,41630,Putignano,False,70017,17.12173080444336,40.851829528808594,Putignano,0804913566,10,"Via Tripoli, 98",False,0804911791,False,False,brm-6035@carime.it,Filiale di Putignano,6107,10112,2f245af7-f1a7-419d-b9ab-a1614ae9307c,
5-OK,False,03111,BA,False,UBI Banca,True,41649,Rutigliano,False,70018,17.006479263305664,41.0111198425293,Rutigliano,0804767726,10,"Piazza XX Settembre, 8",False,0804761193,False,False,brm-6036@carime.it,Filiale di Rutigliano,6108,10112,a2bd7691-ad0e-400a-a7b8-65bba2815fab,
5-OK,False,03111,BA,False,UBI Banca,True,41720,Ruvo Di Puglia,False,70037,16.4867000579834,41.11714172363281,Ruvo Di Puglia,0803629993,10,"Via Bruno Monsignor, 14",False,0803629977,False,False,brm-6042@carime.it,Filiale di Ruvo di Puglia,6109,10112,8d3b1767-08e6-45d4-b19b-ef3657e7c253,
5-OK,False,03111,BA,False,UBI Banca,True,41670,Sannicandro Di Bari,False,70028,16.795940399169922,41.00117111206055,Sannicandro Di Bari,080633224,10,"Piazza IV Novembre, 15",False,080632095,False,False,brm-6038@carime.it,Filiale di Sannicandro di Bari,6110,10112,246e9497-5029-4f65-a181-6af95dc4c7c1,
5-OK,False,03111,BA,False,UBI Banca,True,41680,Santeramo In Colle,False,70029,16.75275993347168,40.79315185546875,Santeramo In Colle,0803021839,10,"Via S. Lucia, 78",False,0803036405,False,False,brm-6040@carime.it,Filiale di Santeramo In Colle,6111,10112,8f235ba9-19c6-43a7-8691-970a9f0a51ad,
5-OK,False,03111,BA,False,UBI Banca,True,41710,Toritto,False,70020,16.680450439453125,40.997650146484375,Toritto,080602386,10,"Piazza Aldo Moro, 48",False,080601407,False,False,brm-6041@carime.it,Minisportello di Toritto - Filiale di Grumo Appula,6113,10112,8adf3a94-5306-4d13-9721-0578a342e686,
5-OK,False,03111,BA,False,UBI Banca,True,41740,Turi,False,70010,17.018299102783203,40.916419982910156,Turi,0808916602,10,"Via A. Orlandi, 15",False,0808915769,False,False,brm-6043@carime.it,Filiale di Turi,6116,10112,1034c770-4162-43ea-b677-06fbbe677b47,
5-OK,False,03111,BA,False,UBI Banca,True,41750,Valenzano,False,70010,16.882144927978516,41.042991638183594,Valenzano,0804672381,10,"Corso Aldo Moro, 87",False,0804671840,False,False,brm-6044@carime.it,Filiale di Valenzano,6117,10112,91d0ccc7-b767-43de-ac70-c367fb285ba0,
APPROXIMATE,False,03111,BA,False,UBI Banca,True,41370,Bitetto,False,70020,16.747833251953125,41.039703369140625,Bitetto,0809921822,10,Piazza Diaz 38,False,0809921198,False,False,brm-6014@carime.it,Minisportello di Bitetto - Filiale di Grumo Appula,7898,10112,11cc1dba-45a2-4c41-800d-363e15cfc3cc,
RANGE_INTERPOLATED,False,03111,BA,False,UBI Banca,True,41571,Monopoli,False,70043,17.287979125976562,40.9525032043457,Monopoli,080802532,10,"Via Frà Girolamo Ippolito, 29",False,080808704,False,False,brm-6021@carime.it,Filiale di Monopoli Ag. 2,8091,10112,be8398bb-8b6d-46c0-a6bb-35b5aba34058,
5-OK,False,03111,BN,False,UBI Banca,True,15001,Benevento,False,82100,14.784905433654785,41.129703521728516,Benevento,082452101,10,"P.zza Risorgimento, 11/12",False,082452101,False,False,ban-1805@bpa.it,Filiale di Benevento - P.zza Risorgimento,5825,10112,e3a2c071-ebf0-4986-90f7-70d82fc91eeb,
GEOMETRIC_CENTER,False,03111,BN,False,UBI Banca,True,88540,San Giorgio La Molara,False,82020,14.927961349487305,41.27281951904297,San Giorgio La Molara,0824983095,10,"Via Sant'ignazio, 7/9",False,0824983095,False,False,ban-1806@bpa.it,Minisportello di San Giorgio La Molara - Filiale di Buonalbergo,6517,10112,d89da4c2-ce96-49ff-90db-ab78e0c0d562,
5-OK,False,03111,BN,False,UBI Banca,True,75510,Telese,False,82037,14.527134895324707,41.21710968017578,Telese,0824941129,10,"Viale Minieri, 143",False,0824941129,False,False,ban-0966@bpa.it,Minisportello di Telese - Filiale di Piedimonte Matese,6518,10112,73e5eb32-ac5c-4b44-9778-06b0717d402a,
5-OK,False,03111,BN,False,UBI Banca,True,88540,Buonalbergo,False,82020,14.975110054016113,41.22243118286133,Buonalbergo,0824929397,10,"Viale Della Resistenza, 3",False,0824929397,False,False,ban-1806@bpa.it,Filiale di Buonalbergo,6711,10112,bedd15c3-b6b7-418c-b973-76e4b59d0e68,
0-OK,False,03111,BG,False,UBI Banca,True,11111,Bergamo,False,24125,9.707189559936523,45.68954849243164,Bergamo,035247103,10,"Via Borgo Palazzo, 135",False,035232262,False,False,bpb-1951@bpb.it,Filiale di Bergamo Clementina,5784,10112,2e7576fa-7217-4a61-8f74-1f24cba56f14,
0-OK,False,03111,BG,False,UBI Banca,True,11101,Bergamo,False,24121,9.661455154418945,45.68638610839844,Bergamo,035251428,10,"Via Dei Caniana, 2",False,035251052,False,False,bpb-0010@bpb.it,Sede di Bergamo - Sportello c/o Università di Bergamo,5785,10112,8cb5187a-a4c7-4dbb-811a-224c703afcf3,
RANGE_INTERPOLATED,False,03111,BG,False,UBI Banca,True,11101,Bergamo,True,24122,9.669482231140137,45.69499206542969,Bergamo,035392385,10,"Piazza Vittorio Veneto, 8",True,035392111,False,False,bpb-0010@bpb.it,Filiale di Bergamo Sede,5775,10112,eea805c1-e895-4156-922b-aff080397b9d,
0-OK,False,03111,BG,False,UBI Banca,True,11102,Bergamo,False,24124,9.681004524230957,45.70500183105469,Bergamo,035247152,10,"Via Borgo Santa Caterina, 6",False,035213187,False,False,bpb-1920@bpb.it,Filiale di Bergamo Borgo Santa Caterina,5776,10112,e1fe7b4c-cb82-4474-9e3d-eda0e1d794be,
5-OK,False,03111,BG,False,UBI Banca,True,11103,Bergamo,False,24129,9.628435134887695,45.69366455078125,Bergamo,035254309,10,"Via Mattioli, 69",False,035251342,False,False,bpb-1960@bpb.it,Filiale di Bergamo Longuelo,5777,10112,e59c3e31-26de-4b5a-a072-bc616926d130,
RANGE_INTERPOLATED,False,03111,BG,False,UBI Banca,True,11105,Bergamo,False,24124,9.696038246154785,45.709991455078125,Bergamo,035340198,10,"Via Corridoni, 56",False,035363248,False,False,bpb-1910@bpb.it,Filiale di Bergamo Redona,5778,10112,b66ba84f-eab3-43c4-8aff-88ee8940af55,
0-OK,False,03111,BG,False,UBI Banca,True,11106,Bergamo,False,24125,9.707189559936523,45.68954849243164,Bergamo,035218557,10,"Via Borgo Palazzo, 51",False,0352285211,False,False,bpb-1950@bpb.it,Filiale di Bergamo Borgo Palazzo,5779,10112,46357ed4-fb27-447c-a623-2ce649331c95,
0-OK,False,03111,BG,False,UBI Banca,True,11107,Bergamo,False,24129,9.663590431213379,45.703914642333984,Bergamo,035223193,10,"Via Gombito, 6",False,035212319,False,False,bpb-1930@bpb.it,Filiale di Bergamo Città Alta,5780,10112,a580a113-bcd8-4963-b5b2-1f99efa47b37,
5-OK,False,03111,BG,False,UBI Banca,True,11108,Bergamo,True,24122,9.663849830627441,45.69306182861328,Bergamo,035220452,10,"Piazza Pontida, 39",False,0352286511,False,False,bpb-0940@bpb.it,Filiale di Bergamo Piazza Pontida,5781,10112,626571b2-41ec-40b7-9f71-a257aa69da12,
0-OK,False,03111,BG,False,UBI Banca,True,11109,Bergamo,False,24128,9.646904945373535,45.693668365478516,Bergamo,035400842,10,"Piazza Risorgimento, 15",False,035258578,False,False,bpb-1900@bpb.it,Filiale di Bergamo Loreto,5782,10112,c676e8e0-211f-481c-8a7a-e350dc5d0869,
0-OK,False,03111,BG,False,UBI Banca,True,11110,Bergamo,False,24126,9.662050247192383,45.682159423828125,Bergamo,035315645,10,"Via San Bernardino, 96",False,035316931,False,False,bpb-0980@bpb.it,Filiale di Bergamo San Bernardino,5783,10112,6cc4c91f-90f1-40dc-9fe6-a3ad6acf1979,
0-OK,False,03111,BG,False,UBI Banca,True,52500,Barzana,False,24030,9.568559646606445,45.733638763427734,Barzana,035548201,10,Via San Rocco,False,035549209,False,False,bpb-0131@bpb.it,Minisportello di Barzana -Filiale di Almenno S.B. -,5926,10112,1bf4c72c-cf79-429c-bddc-0e2a1d031d46,
5-OK,False,03111,BG,False,UBI Banca,True,31810,Cenate Sotto,False,24069,9.821709632873535,45.69913864135742,Cenate Sotto,0354250769,10,"Via Verdi, 5",False,0354250775,False,False,bpb-0411@bpb.it,Filiale di Cenate Sotto,5940,10112,d543e2e1-27fd-4046-a268-913305cfacaf,
5-OK,False,03111,BG,False,UBI Banca,True,45070,Parre,False,24020,9.891900062561035,45.87723922729492,Parre,035704284,10,"Via Duca D'aosta, 20/A",False,035701117,False,False,bpb-0292@bpb.it,Filiale di Parre,6174,10112,8dab2ca4-f28f-423d-960a-452cd61a1e95,
5-OK,False,03111,BG,False,UBI Banca,True,52470,Albano Sant'alessandro,False,24061,9.766610145568848,45.6881217956543,Albano Sant'alessandro,035582225,10,"Via Cavour, 2",False,0354218011,False,False,bpb-1620@bpb.it,Filiale di Albano Sant`Alessandro,6304,10112,7b9bb583-bf2b-4784-93c7-fd158eed3975,
5-OK,False,03111,BG,False,UBI Banca,True,52480,Albino,False,24021,9.794730186462402,45.75911331176758,Albino,035752451,10,"Via Mazzini, 181",False,035756211,False,False,bpb-0110@bpb.it,Filiale di Albino,6305,10112,4c8eaddc-d0aa-4e6f-940f-85a92edd82b9,
0-OK,False,03111,BG,False,UBI Banca,True,52480,Fiobbio,False,24021,9.827269554138184,45.754119873046875,Albino,,10,"Via Lunga, 1",False,035771196,False,False,bpb-0110@bpb.it,Minisportello di Fiobbio -Filiale di Albino-,6306,10112,198424f3-9db1-408a-8adf-170428ca63c7,
5-OK,False,03111,BG,False,UBI Banca,True,52490,Alme',False,24011,9.612460136413574,45.74184036254883,Alme',035542057,10,"Via Torre D'oro, 2",False,035638214,False,False,bpb-0120@bpb.it,Filiale di Alme`,6307,10112,78e3577f-1b23-432b-85ed-4bc234f945cf,
5-OK,False,03111,BG,False,UBI Banca,True,52500,Almenno San Bartolomeo,False,24030,9.585430145263672,45.73060989379883,Almenno San Bartolomeo,035553066,10,"Via Falcone, 2",False,035549714,False,False,bpb-0131@bpb.it,Filiale di Almenno San Bartolomeo,6308,10112,de602745-a614-4ec9-a27c-7f0068bfabd3,
5-OK,False,03111,BG,False,UBI Banca,True,52510,Almenno San Salvatore,False,24031,9.591019630432129,45.749549865722656,Almenno San Salvatore,035640025,10,"Via Marconi, 3",False,035643022,False,False,bpb-0130@bpb.it,Filiale di Almenno San Salvatore,6309,10112,73b7b729-fbbb-44b8-81c0-3d73a03f456a,
5-OK,False,03111,BG,False,UBI Banca,True,52520,Alzano Lombardo,False,24022,9.728500366210938,45.7318000793457,Alzano Lombardo,035513047,10,"Piazza Garibaldi, 3",False,035513130,False,False,bpb-0140@bpb.it,Filiale di Alzano Lombardo,6310,10112,ec9938ca-1e29-41b4-aeea-c2d5fec72ff4,
5-OK,False,03111,BG,False,UBI Banca,True,52540,Arcene,False,24040,9.61439037322998,45.574100494384766,Arcene,035879003,10,"Corso Europa, 7",False,0354820740,False,False,bpb-1700@bpb.it,Filiale di Arcene,6311,10112,db29a513-ba38-4a35-b485-be0f1914122e,
5-OK,False,03111,BG,False,UBI Banca,True,52550,Ardesio,False,24020,9.930069923400879,45.93288040161133,Ardesio,034633211,10,"Via Locatelli, 8",False,034620415,False,False,bpb-0560@bpb.it,Filiale di Ardesio,6312,10112,65fa2510-1677-48e4-a5d0-6e0a0d2733c5,
0-OK,False,03111,BG,False,UBI Banca,True,53420,Bariano,False,24050,9.704830169677734,45.514278411865234,Bariano,0363958157,10,"Via A. Locatelli, 12",False,0363958148,False,False,bpb-0320@bpb.it,Minisportello di Bariano - Filiale di Romano di Lombardia,6314,10112,0a386cfd-9ed8-49de-9945-07c9e316867a,
0-OK,False,03111,BG,False,UBI Banca,True,52600,Berbenno,False,24030,9.567620277404785,45.813201904296875,Berbenno,,10,"Piazza Roma, 2",False,035850003,False,False,bpb-0580@bpb.it,Minisportello di Berbenno -Filiale di Ponte Giurino-,6315,10112,51af33dc-b310-4c14-8722-c9f6ce73f823,
5-OK,False,03111,BG,False,UBI Banca,True,85463,Brembilla,False,24012,9.592729568481445,45.82374954223633,Brembilla,034599191,10,"Via Liberta', 25",False,034598101,False,False,bpb-0540@bpb.it,Filiale di Brembilla,6317,10112,ec1d17e3-2525-437d-ba19-b70c842fb3ff,
5-OK,False,03111,BG,False,UBI Banca,True,52680,Brignano Gera D'adda,False,24053,9.649060249328613,45.54533004760742,Brignano Gera D'adda,0363382113,10,"Piazza Mons.Donini, 1",False,0363814026,False,False,bpb-0150@bpb.it,Filiale di Brignano Gera d`Adda,6318,10112,0d6d1631-10fe-4e80-a779-37a76792515b,
5-OK,False,03111,BG,False,UBI Banca,True,52690,Calcinate,False,24050,9.800435066223145,45.61846160888672,Calcinate,035841703,10,"Via Coclino, 8/C",False,0354423500,False,False,bpb-0273@bpb.it,Filiale di Calcinate,6319,10112,36f3b3ba-0f81-410b-b2cc-addaa3d4b82f,
5-OK,False,03111,BG,False,UBI Banca,True,52700,Calcio,False,24054,9.85219955444336,45.507511138916016,Calcio,0363906089,10,"Via Papa Giovanni, 153",False,0363906425,False,False,bpb-0160@bpb.it,Filiale di Calcio,6320,10112,ce6f1a67-ab17-4259-b54e-2d7d319a4ac0,
5-OK,False,03111,BG,False,UBI Banca,True,52720,Calusco D'adda,False,24033,9.46189022064209,45.685585021972656,Calusco D'adda,035794609,10,"Via Vittorio Emanuele, 7",False,035791132,False,False,bpb-0180@bpb.it,Filiale di Calusco D`Adda,6322,10112,805beba4-3df5-4fcf-a5d0-773ce06e83ee,
0-OK,False,03111,BG,False,UBI Banca,True,52880,Caprino Bergamasco,False,24030,9.481719970703125,45.74674987792969,Caprino Bergamasco,,10,"Via Roma, 10",False,035781780,False,False,bpb-0210@bpb.it,Minisportello di Caprino Bergamasco - Filiale di Cisano Bergamasco,6324,10112,c49bc8e9-bba7-48d7-a336-db2a485c1568,
5-OK,False,03111,BG,False,UBI Banca,True,52770,Caravaggio,False,24043,9.643770217895508,45.497440338134766,Caravaggio,0363350247,10,"Piazza G. Garibaldi, 1",False,0363350466,False,False,bpb-0190@bpb.it,Filiale di Caravaggio,6325,10112,ec7c0a11-8977-4e07-91a9-f3927156cdbd,
5-OK,False,03111,BG,False,UBI Banca,True,52780,Carvico,False,24030,9.480850219726562,45.70075988769531,Carvico,035794510,10,"Via Europa Unita, 3",False,035791400,False,False,bpb-0720@bpb.it,Filiale di Carvico,6326,10112,0c159c6d-4c72-4e30-9d14-525ae3277bc4,
5-OK,False,03111,BG,False,UBI Banca,True,52790,Casazza,False,24060,9.9091796875,45.74448013305664,Casazza,035810074,10,"Via Nazionale,92",False,035813065,False,False,bpb-0200@bpb.it,Filiale di Casazza,6327,10112,82ef89fd-b589-4659-8ed0-9b6015e571b1,
0-OK,False,03111,BG,False,UBI Banca,True,53640,Casirate D'adda,False,24040,9.567279815673828,45.493370056152344,Casirate D'adda,036387443,10,"Piazza Papa Giovanni XXIII, 1",False,0363312911,False,False,bpb-0100@bpb.it,Minisportello di Casirate D'Adda -Filiale di Treviglio-,6328,10112,a43fa5dd-b0e6-4958-bf83-445e242fa625,
5-OK,False,03111,BG,False,UBI Banca,True,52840,Castione Della Presolana,False,24020,10.038519859313965,45.9102783203125,Castione Della Presolana,034661173,10,"Via A. Manzoni, 20",False,034661007,False,False,bpb-1730@bpb.it,Filiale di Castione Della Presolana,6329,10112,cde829e1-55be-488d-9b17-6ff2bc641d91,
5-OK,False,03111,BG,False,UBI Banca,True,52570,Azzano San Paolo,False,24052,9.675379753112793,45.66065979003906,Azzano San Paolo,035533206,10,"Piazza Iv Novembre, 4",False,035530126,False,False,bpb-1710@bpb.it,Filiale di Azzano San Paolo,6313,10112,3c9d8268-9613-4675-ab7c-9d5001c1571a,
5-OK,False,03111,BG,False,UBI Banca,True,53160,Cazzano Sant'Andrea,False,24024,9.886819839477539,45.811119079589844,Cazzano Sant'Andrea,,10,"Via Angelo Tacchini, 18",False,035741673,False,False,bpb-0260@bpb.it,Minisportello di Cazzano Sant'Andrea - Filiale di Leffe,6331,10112,6fa68506-bce9-4d2a-a0c5-f799bb1aeb39,
5-OK,False,03111,BG,False,UBI Banca,True,52860,Cene,False,24020,9.82306957244873,45.782920837402344,Cene,035718374,10,"Via Vittorio Veneto, 9",False,035718043,False,False,bpb-0510@bpb.it,Filiale di Cene,6332,10112,dac3eb8a-bf5e-4fe7-b2e5-dbdeaf917733,
5-OK,False,03111,BG,False,UBI Banca,True,52870,Chiuduno,False,24060,9.847880363464355,45.651329040527344,Chiuduno,035838564,10,"Via Cesare Battisti, 1",False,035838514,False,False,bpb-0480@bpb.it,Filiale di Chiuduno,6333,10112,f8cbc62d-f2c5-4fea-912d-d8e78572ffcb,
5-OK,False,03111,BG,False,UBI Banca,True,52880,Cisano Bergamasco,False,24034,9.477194786071777,45.739566802978516,Cisano Bergamasco,035787260,10,"Via Pascoli, 1",False,035787810,False,False,bpb-0210@bpb.it,Filiale di Cisano Bergamasco,6334,10112,bb07c463-16cf-4a2d-ba9c-b12f74105a55,
0-OK,False,03111,BG,False,UBI Banca,True,52890,Ciserano,False,24040,9.602950096130371,45.5855598449707,Ciserano,035884318,10,"Via Borgo San Marco ang. Via Garibaldi, 7",False,0354182511,False,False,bpb-1610@bpb.it,Filiale di Zingonia,6335,10112,dfa4cbf8-b4a9-4483-addc-250559873e60,
5-OK,False,03111,BG,False,UBI Banca,True,52900,Cividate Al Piano,False,24050,9.832030296325684,45.55506896972656,Cividate Al Piano,0363945139,10,"Piazza P. Giovanni XXIII,3",False,0363945049,False,False,bpb-0163@bpb.it,Filiale di Cividate Al Piano,6337,10112,19eec2d9-e8c0-4849-bd90-63064ea4f534,
5-OK,False,03111,BG,False,UBI Banca,True,52910,Clusone,False,24023,9.94704532623291,45.88938522338867,Clusone,034620182,10,"Via Verdi, 3",False,034621353,False,False,bpb-0220@bpb.it,Filiale di Clusone,6338,10112,86b86e21-8c23-4963-be68-ea119de911b3,
5-OK,False,03111,BG,False,UBI Banca,True,52930,Comun Nuovo,False,24040,9.662335395812988,45.62150573730469,Comun Nuovo,035334086,10,"Via Cesare Battisti, 5",False,035595007,False,False,bpb-0431@bpb.it,Filiale di Comun Nuovo,6339,10112,1b058e55-e7be-4b85-956e-d6f98beb4da9,
5-OK,False,03111,BG,False,UBI Banca,True,52940,Costa Volpino,False,24062,10.090669631958008,45.825199127197266,Costa Volpino,035970865,10,"Via Nazionale, 150",False,035434721,False,False,bpb-0640@bpb.it,Filiale di Costa Volpino,6340,10112,43df273b-67a4-4f5f-85ff-ca05fa30c90a,
5-OK,False,03111,BG,False,UBI Banca,True,52960,Curno,False,24035,9.6083402633667,45.69050979614258,Curno,035462039,10,"Largo Vittoria, 31",False,035462493,False,False,bpb-0312@bpb.it,Filiale di Curno,6341,10112,c38b08c1-2cf6-4d3c-a9fd-68166cb41db9,
5-OK,False,03111,BG,False,UBI Banca,True,52970,Dalmine,True,24044,9.600600242614746,45.65074157714844,Dalmine,035565998,10,"Via Buttaro, 2/B",False,0352051111,False,False,bpb-0460@bpb.it,Filiale di Dalmine,6342,10112,5a1b0d88-9d80-4b61-930b-6d039b35b458,
APPROXIMATE,False,03111,BG,False,UBI Banca,True,52979,Dalmine,False,24044,9.599041938781738,45.64673614501953,Dalmine,,10,Piazza Caduti 6 Luglio 1944,False,0355603940,False,False,bpb-0460@bpb.it,Filiale di Dalmine - Sportello c/o Dalmine Spa,6343,10112,23895ebe-34f2-4b4d-bd83-5fb900e46200,
5-OK,False,03111,BG,False,UBI Banca,True,53020,Fontanella,False,24056,9.800250053405762,45.469200134277344,Fontanella,0363997223,10,"Via Cavour, 18",False,0363907106,False,False,bpb-0240@bpb.it,Filiale di Fontanella,6344,10112,bff1af93-07df-4249-9b9f-f5242a00731c,
5-OK,False,03111,BG,False,UBI Banca,True,53060,Gandino,False,24024,9.899259567260742,45.80971908569336,Gandino,035745516,10,"Via C. Battisti, 5",False,035745460,False,False,bpb-0250@bpb.it,Filiale di Gandino,6345,10112,34a738f9-c0a5-4856-b0bf-e155fda415fb,
5-OK,False,03111,BG,False,UBI Banca,True,53070,Gazzaniga,False,24025,9.83629035949707,45.796810150146484,Gazzaniga,035713410,10,"Via Marconi, 14",False,035721101,False,False,bpb-0070@bpb.it,Filiale di Gazzaniga,6346,10112,cb2b6f15-4e90-4a87-9de2-c3dafbb5531e,
0-OK,False,03111,BG,False,UBI Banca,True,52840,Castione della Presolana,False,24020,10.057299613952637,45.91558837890625,Castione della Presolana,034636558,10,"Via Donizetti, 2",False,034636029,False,False,bpb-1730@bpb.it,Minisportello di Bratto/Dorga -Filiale di Castione della Presolana-,6330,10112,b05c5a68-ae0f-4d93-be5e-19c886a53ddf,
5-OK,False,03111,BG,False,UBI Banca,True,53120,Grassobbio,False,24050,9.720504760742188,45.65835952758789,Grassobbio,035335081,10,"Viale Europa, 8/B",False,035525357,False,False,bpb-0713@bpb.it,Filiale di Grassobbio,6349,10112,598a61fb-48fa-4162-b2b1-5406ae1f7ca5,
5-OK,False,03111,BG,False,UBI Banca,True,53140,Grumello Del Monte,False,24064,9.870829582214355,45.63608932495117,Grumello Del Monte,,10,"Via Martiri Della Liberta', 10",False,0358359011,False,False,bpb-0450@bpb.it,Filiale di Grumello Del Monte,6350,10112,ce2ed5c1-67fc-483e-b859-fc0ee5038bbc,
5-OK,False,03111,BG,False,UBI Banca,True,53160,Leffe,False,24026,9.882269859313965,45.7988395690918,Leffe,035732025,10,"Via Mosconi, 1",False,0357170611,False,False,bpb-0260@bpb.it,Filiale di Leffe,6351,10112,e4de2cc2-c724-4555-b8ba-7d398e3dba98,
5-OK,False,03111,BG,False,UBI Banca,True,53170,Lovere,False,24065,10.074074745178223,45.81549072265625,Lovere,035983165,10,"Via Tadini, 30",False,035983104,False,False,bpb-0080@bpb.it,Filiale di Lovere,6352,10112,72b7a74b-9c8b-49a0-8c2c-262870741a33,
0-OK,False,03111,BG,False,UBI Banca,True,53170,Lovere,False,24065,10.07075023651123,45.81132125854492,Lovere,,10,"Via Giorgio Paglia, 45",False,035983425,False,False,bpb-0080@bpb.it,Minisportello di Lucchini Sidermeccanica Spa -Filiale Lovere-,6353,10112,ddc2f5d7-8fb4-40aa-b2cd-00af5778ab9d,
5-OK,False,03111,BG,False,UBI Banca,True,53180,Madone,False,24040,9.549989700317383,45.65013122558594,Madone,035991435,10,"Via Papa Giovanni Xxiii, 44",False,035465031,False,False,bpb-0670@bpb.it,Filiale di Madone,6354,10112,cf1391f6-4394-4084-8045-8be378d9105c,
5-OK,False,03111,BG,False,UBI Banca,True,53190,Mapello,False,24030,9.550305366516113,45.70930862426758,Mapello,0354946169,10,"Piazza Del Dordo, 5",False,0354946174,False,False,bpb-0314@bpb.it,Filiale di Mapello,6355,10112,862ace4f-786e-4b9c-b1de-3606d4079f8e,
GEOMETRIC_CENTER,False,03111,BG,False,UBI Banca,True,53200,Martinengo,False,24057,9.761314392089844,45.57048034667969,Martinengo,0363904305,10,"Via Pinetti, 26",False,0363904409,False,False,bpb-0270@bpb.it,Filiale di Martinengo,6356,10112,a97dc8ea-eee3-434b-8557-abc1bc8d7816,
0-OK,False,03111,BG,False,UBI Banca,True,53250,Nembro,False,24027,9.759490013122559,45.743858337402344,Nembro,035520966,10,Piazza della Libertà,False,035471611,False,False,bpb-0280@bpb.it,Filiale di Nembro,6357,10112,4687f7e9-3c39-41a0-97f7-f0ed0a84f1ec,
0-OK,False,03111,BG,False,UBI Banca,True,53289,Orio al Serio,False,24050,9.700115203857422,45.66501998901367,Orio al Serio,035330092,10,"Via Aeroporto, 13",False,035311348,False,False,bpb-0714@bpb.it,Filiale di Orio al Serio,6358,10112,76f3778c-11bc-452c-b888-48a540967b1c,
5-OK,False,03111,BG,False,UBI Banca,True,53290,Osio Sotto,True,24046,9.595569610595703,45.61809158325195,Osio Sotto,0354823305,10,"Via Cavour, 2",False,035418581,False,False,bpb-0300@bpb.it,Filiale di Osio Sotto,6359,10112,7b93dc40-fd3f-48d8-92bd-7fd495053b3e,
5-OK,False,03111,BG,False,UBI Banca,True,53300,Paladina,False,24030,9.606900215148926,45.72713851928711,Paladina,035639430,10,"Via Iv Novembre, 13",False,035638326,False,False,bpb-0570@bpb.it,Filiale di Paladina,6360,10112,5ff4fff7-6174-40fa-b7d7-0f7c6bb4cdb0,
5-OK,False,03111,BG,False,UBI Banca,True,53310,Palosco,False,24050,9.835209846496582,45.58518600463867,Palosco,035846725,10,"Piazza A. Manzoni, 16",False,035846616,False,False,bpb-0091@bpb.it,Filiale di Palosco,6361,10112,08e2d154-9a5b-4966-9f4d-a0929db863fa,
5-OK,False,03111,BG,False,UBI Banca,True,53330,Piazza Brembana,False,24014,9.67335033416748,45.948760986328125,Piazza Brembana,034582155,10,"Via B. Belotti, 10",False,034582169,False,False,bpb-0350@bpb.it,Filiale di Piazza Brembana,6362,10112,6e580d81-19f2-47d3-bec2-95e1748cb61c,
5-OK,False,03111,BG,False,UBI Banca,True,53350,Ponte Nossa,False,24028,9.883509635925293,45.86671829223633,Ponte Nossa,035703532,10,"Via Frua, 24",False,035704335,False,False,bpb-0290@bpb.it,Filiale di Ponte Nossa,6363,10112,2ab274fb-552b-4559-86ff-80d1acfd5b1d,
5-OK,False,03111,BG,False,UBI Banca,True,53090,Gorlago,False,24060,9.829059600830078,45.6767692565918,Gorlago,035953454,10,"Piazza Gregis, 12",False,035951123,False,False,bpb-0530@bpb.it,Filiale di Gorlago,6347,10112,8723c8fe-099a-4748-b60d-a88e91e6da61,
0-OK,False,03111,BG,False,UBI Banca,True,53100,Gorle,False,24020,9.716774940490723,45.704315185546875,Gorle,035664499,10,"Piazzetta Del Donatore, 5",False,035663399,False,False,bpb-0392@bpb.it,Filiale di Gorle,6348,10112,3d1432d3-cf8a-404c-bc1c-bca1ed23997d,
5-OK,False,03111,BG,False,UBI Banca,True,53410,Ranica,False,24020,9.71438980102539,45.72700881958008,Ranica,035510300,10,"Piazza Europa, 2",False,035511536,False,False,bpb-0590@bpb.it,Filiale di Ranica,6366,10112,a9ef2864-17ef-40a0-910b-f9d5f0c346e5,
5-OK,False,03111,BG,False,UBI Banca,True,53420,Romano Di Lombardia,False,24058,9.755330085754395,45.51897048950195,Romano Di Lombardia,0363902110,10,"Via Tadini, 2",False,0363912911,False,False,bpb-0320@bpb.it,Filiale di Romano di Lombardia,6367,10112,ab80d728-892b-417b-90a3-2120c4461d89,
5-OK,False,03111,BG,False,UBI Banca,True,53430,Rovetta,False,24020,9.989330291748047,45.891048431396484,Rovetta,034674090,10,"Via Tosi, 13",False,034674141,False,False,bpb-0330@bpb.it,Filiale di Rovetta,6368,10112,b7f1173a-1bcb-4bc5-bc6e-14c42b341d85,
5-OK,False,03111,BG,False,UBI Banca,True,53440,San Giovanni Bianco,False,24015,9.652779579162598,45.87419128417969,San Giovanni Bianco,034543606,10,"Via Martiri Di Cantiglio, 19",False,034543124,False,False,bpb-0340@bpb.it,Filiale di San Giovanni Bianco,6369,10112,8024d87b-b1f1-4936-bd00-93d25b4e5434,
5-OK,False,03111,BG,False,UBI Banca,True,53450,San Pellegrino Terme,False,24016,9.663909912109375,45.83763122558594,San Pellegrino Terme,034523398,10,"Via S. Carlo, 3",False,034521036,False,False,bpb-0370@bpb.it,Filiale di San Pellegrino Terme,6370,10112,1251b0e7-cf54-4d5f-8e49-d080ca6d814b,
5-OK,False,03111,BG,False,UBI Banca,True,53460,Sant'omobono Terme,False,24038,9.516839981079102,45.819610595703125,Sant'omobono Terme,035852288,10,"Viale Alle Fonti, 8",False,035850048,False,False,bpb-0360@bpb.it,Filiale di Sant`Omobono Terme,6371,10112,c7e2ebcb-a9f0-48d0-92c3-0ac619f14bda,
0-OK,False,03111,BG,False,UBI Banca,True,53470,Sarnico,False,24067,9.957429885864258,45.6662483215332,Sarnico,035911497,10,Piazza Umberto I,False,0354267011,False,False,bpb-0380@bpb.it,Filiale di Sarnico,6372,10112,25c34582-4a02-47e0-9df9-b28ade2cb10c,
5-OK,False,03111,BG,False,UBI Banca,True,53480,Scanzorosciate,False,24020,9.734749794006348,45.70875930786133,Scanzorosciate,035655116,10,"Via Roma, 27",False,035659251,False,False,bpb-0390@bpb.it,Filiale di Scanzorosciate,6373,10112,3660c622-9ff9-477e-864b-917e4dc28aee,
5-OK,False,03111,BG,False,UBI Banca,True,53490,Schilpario,False,24020,10.15211009979248,46.00960922241211,Schilpario,034656138,10,"Via Torri, 8",False,034656330,False,False,bpb-0400@bpb.it,Filiale di Schilpario,6374,10112,152e5d06-0304-4422-bb86-04d2749d55cd,
0-OK,False,03111,BG,False,UBI Banca,True,53509,Selvino,False,24020,9.757149696350098,45.7828483581543,Selvino,035763225,10,Corso Monte Rosa,False,035763021,False,False,bpb-1770@bpb.it,Filiale di Selvino,6375,10112,4d86daff-c842-48f2-a9b0-e2c0e30fe446,
0-OK,False,03111,BG,False,UBI Banca,True,53510,Seriate,False,24068,9.719670295715332,45.684810638427734,Seriate,035296715,10,"Viale Italia, 24",False,0354524311,False,False,bpb-0550@bpb.it,Filiale di Seriate,6376,10112,448c6984-5346-4964-8951-a2c82726df45,
5-OK,False,03111,BG,False,UBI Banca,True,53550,Sovere,False,24060,10.02711009979248,45.81632995605469,Sovere,035982445,10,"Via Roma, 36",False,035981112,False,False,bpb-0520@bpb.it,Filiale di Sovere,6377,10112,5e109657-10a8-459f-86a1-9caf20add33c,
0-OK,False,03111,BG,False,UBI Banca,True,53560,Spirano,False,24050,9.669890403747559,45.58325958251953,Spirano,035877224,10,Via Dante,False,0354820786,False,False,bpb-1600@bpb.it,Filiale di Spirano,6378,10112,116f366d-f1ec-4f7b-a927-1054402faa9b,
5-OK,False,03111,BG,False,UBI Banca,True,53570,Stezzano,True,24040,9.654769897460938,45.653480529785156,Stezzano,035591702,10,"Via Bergamo, 1",False,035455991,False,False,bpb-0470@bpb.it,Filiale di Stezzano,6379,10112,d35cb57d-6403-4125-a744-7b9df5435ebc,
5-OK,False,03111,BG,False,UBI Banca,True,53360,Ponteranica,False,24010,9.657380104064941,45.72230911254883,Ponteranica,035571188,10,"Via Ponte Secco,32",False,035573568,False,False,bpb-0490@bpb.it,Filiale di Ponteranica,6364,10112,67489669-de2b-4833-823a-f9d6327e129f,
5-OK,False,03111,BG,False,UBI Banca,True,53370,Ponte San Pietro,False,24036,9.592700004577637,45.697391510009766,Ponte San Pietro,035611036,10,"Piazza SS. Pietro e Paolo, 19",False,035467611,False,False,bpb-0310@bpb.it,Filiale di Ponte San Pietro,6365,10112,71968153-6bca-4092-99e5-5ce002c3d6bf,
0-OK,False,03111,BG,False,UBI Banca,True,11105,Torre Boldone,False,24020,9.708040237426758,45.71406173706055,Torre Boldone,035363514,10,"Via Carducci, 12",False,035363505,False,False,bpb-1910@bpb.it,Minisportello di Torre Boldone -Filiale di Bergamo Redona-,6383,10112,1fa3da22-6247-40e8-a8b6-0586a9bf7143,
5-OK,False,03111,BG,False,UBI Banca,True,53630,Trescore Balneario,False,24069,9.841300010681152,45.69384002685547,Trescore Balneario,035944779,10,"Via Locatelli, 45",False,0354274411,False,False,bpb-0410@bpb.it,Filiale di Trescore Balneario,6384,10112,c8c13b1a-6271-4e11-b1ac-5c7505f30b5a,
0-OK,False,03111,BG,False,UBI Banca,True,53640,Treviglio,False,24047,9.589534759521484,45.52037048339844,Treviglio,036340875,10,"Viale Filagno, 11",False,0363312911,False,False,bpb-0100@bpb.it,Filiale di Treviglio,6385,10112,6e148d37-c462-425d-9041-cfa1d2e544f3,
5-OK,False,03111,BG,False,UBI Banca,True,53660,Urgnano,False,24059,9.696459770202637,45.59714126586914,Urgnano,035891754,10,"Via Matteotti, 167",False,035892289,False,False,bpb-1601@bpb.it,Filiale di Urgnano,6386,10112,5de5ef09-f259-4d9e-a4aa-cba82b6c1c8b,
5-OK,False,03111,BG,False,UBI Banca,True,53700,Verdello,False,24049,9.626520156860352,45.606231689453125,Verdello,035871284,10,"Via Castello, 31",False,035871050,False,False,bpb-0430@bpb.it,Filiale di Verdello,6387,10112,5375298a-40c1-4424-9aa1-d40f642b8e0d,
5-OK,False,03111,BG,False,UBI Banca,True,53710,Vertova,False,24029,9.85416030883789,45.810081481933594,Vertova,035712762,10,"Via S. Rocco, 45",False,035721120,False,False,bpb-0500@bpb.it,Filiale di Vertova,6388,10112,4031317e-c877-44c1-b4fc-94a9919016d4,
5-OK,False,03111,BG,False,UBI Banca,True,53720,Villa D'adda,False,24030,9.465950012207031,45.71226119995117,Villa D'adda,035793947,10,"Via Fossa, 8",False,035791210,False,False,bpb-0690@bpb.it,Filiale di Villa D`Adda,6389,10112,71b3f84f-c102-4285-9219-96f1391930b1,
0-OK,False,03111,BG,False,UBI Banca,True,53730,Villa d'Almè,False,24018,9.615110397338867,45.74713134765625,Villa d'Almè,035639576,10,"Via Roma, Angolo Via Locatelli, 1",False,035639620,False,False,bpb-0121@bpb.it,Filiale di Villa D`Alme`,6390,10112,8233be9d-2f8f-46cc-a67e-2bb089f68312,
5-OK,False,03111,BG,False,UBI Banca,True,53760,Villongo,False,24060,9.932390213012695,45.6662712097168,Villongo,035926035,10,"Via Bellini, 20",False,035926112,False,False,bpb-1780@bpb.it,Filiale di Villongo,6391,10112,de3e8150-ba62-4813-b21a-f928760d3631,
5-OK,False,03111,BG,False,UBI Banca,True,53770,Vilminore Di Scalve,False,24020,10.091489791870117,45.996883392333984,Vilminore Di Scalve,034651026,10,"Piazza Giovanni Xxiii, 2",False,034652802,False,False,bpb-1790@bpb.it,Filiale di Vilminore di Scalve,6392,10112,188cfbbe-7d93-4ebb-971f-43da460796a6,
5-OK,False,03111,BG,False,UBI Banca,True,53790,Zogno,False,24019,9.669469833374023,45.795101165771484,Zogno,034594110,10,"Viale Martiri Della Liberta', 1",False,034552411,False,False,bpb-0440@bpb.it,Filiale di Zogno,6393,10112,17d917f9-23cc-48a7-8f92-d180b2940059,
5-OK,False,03111,BG,False,UBI Banca,True,53850,Osio Sopra,False,24040,9.593199729919434,45.63011169433594,Osio Sopra,035500910,10,"Via Xxv Aprile, 29",False,035500100,False,False,bpb-0301@bpb.it,Filiale di Osio Sopra,6394,10112,11e123e4-5f95-484d-8143-51870259a9fe,
5-OK,False,03111,BG,False,UBI Banca,True,53880,Boltiere,False,24040,9.579324722290039,45.59991455078125,Boltiere,035881726,10,"Piazza Iv Novembre, 14",False,035881487,False,False,bpb-0302@bpb.it,Filiale di Boltiere,6396,10112,29072bf6-99cf-47fc-bbe6-ac8f2f652d2d,
5-OK,False,03111,BG,False,UBI Banca,True,53890,Bonate Sopra,False,24040,9.55858039855957,45.68193817138672,Bonate Sopra,035991191,10,"Piazza Vittorio Emanuele Ii, 20",False,0354942966,False,False,bpb-0313@bpb.it,Filiale di Bonate Sopra,6397,10112,ea9ee951-b6e5-4f08-84d3-52540a396522,
5-OK,False,03111,BG,False,UBI Banca,True,53590,Tavernola Bergamasca,False,24060,10.047309875488281,45.70949935913086,Tavernola Bergamasca,035932786,10,"Via Roma, 12",False,035932905,False,False,bpb-0680@bpb.it,Filiale di Tavernola Bergamasca,6381,10112,5ca5df43-228c-4bf5-8c8b-4b2cf53f51a5,
5-OK,False,03111,BG,False,UBI Banca,True,53600,Telgate,False,24060,9.852540016174316,45.6285285949707,Telgate,035830887,10,"Via Morenghi, 17",False,035830839,False,False,bpb-0451@bpb.it,Filiale di Telgate,6382,10112,d4e6766f-5d67-457f-9d3e-46049d43e87a,
5-OK,False,03111,BG,False,UBI Banca,True,52720,Suisio,False,24040,9.500320434570312,45.65132141113281,Suisio,0354933491,10,"Via Carabello Poma, 31",False,0354933473,False,False,bpb-0180@bpb.it,Minisportello di Suisio -Filiale di Calusco d'Adda -,6399,10112,9c712e32-6723-4df0-b6ac-acd95f1fa008,
5-OK,False,03111,BG,False,UBI Banca,True,53920,Presezzo,False,24030,9.567930221557617,45.68873977661133,Presezzo,035463349,10,"Via Capersegno, 28",False,035460184,False,False,bpb-0311@bpb.it,Filiale di Presezzo,6398,10112,a2ab1f94-f7eb-4cec-a22b-05fba424516f,
5-OK,False,03111,BG,False,UBI Banca,False,69310,Adrara San Martino,False,24060,9.948519706726074,45.69974136352539,Adrara San Martino,035933583,10,"Via Madaschi, 103",False,035934297,False,False,bpb-0380@bpb.it,Filiale di Sarnico - Adrara San Martino,6476,10112,132ce321-141d-4e0e-8eae-f3708baf8605,
0-OK,False,03111,BG,False,UBI Banca,True,53440,Dossena,False,24010,9.696669578552246,45.87919998168945,Dossena,,10,"Via Carele, 12",False,034549451,False,False,bpb-0340@bpb.it,Minisportello Dossena -Filiale di San Giovanni Bianco-,6501,10112,3ce9cc72-41a3-47cf-94a0-6508249528e9,
5-OK,False,03111,BG,False,UBI Banca,True,53630,Zandobbio,False,24060,9.85651969909668,45.6863899230957,Zandobbio,035944311,10,"Via G.Verdi, 2",False,035945086,False,False,bpb-0410@bpb.it,Minisportello di Zandobbio -Filiale di Trescore Balneario-,6502,10112,a2e2102b-12dc-439e-ae47-3ead2d5c5722,
RANGE_INTERPOLATED,False,03111,BG,False,UBI Banca,True,53760,Foresto Sparso,False,24060,9.919740676879883,45.68854522705078,Foresto Sparso,,10,"Via Tremellini, 1",False,035930788,False,False,bpb-1780@bpb.it,Minisportello di Foresto Sparso -Filiale di Villongo-,6503,10112,044db606-fda6-4011-9511-54e2e7014409,
0-OK,False,03111,BG,False,UBI Banca,True,53630,Cenate Sopra,False,24069,9.823089599609375,45.71192169189453,Cenate Sopra,035956879,10,"Via Giovanni XXIII, 16",False,035956729,False,False,bpb-0410@bpb.it,Minisportello di Cenate Sopra -Filiale di Trescore Balneario-,6703,10112,47ec61ce-12b9-4377-a5df-100a7b1d2edd,
5-OK,False,03111,BG,False,UBI Banca,False,52470,Torre de' Roveri,False,24060,9.770919799804688,45.6998291015625,Torre de' Roveri,0354528844,10,"Piazza Conte Sforza, 3",False,035583082,False,False,BPB-1620-Fil.Albano.SantAlessandro@bpb.it,Minisportello di Torre de Roveri - Filiale di Albano Sant'Alessandro,6704,10112,681fa860-0cf5-48c8-ae56-45ce441374ba,
0-OK,False,03111,BG,False,UBI Banca,False,53630,Entratico,False,24060,9.874670028686523,45.70568084716797,Entratico,,10,"Piazza Aldo Moro, 18",False,035945238,False,False,bpb-0410@bpb.it,Minisportello di Entratico -Filiale di Trescore Balneario-,6707,10112,0fa2229e-5450-40cf-acf0-463421cf6984,
RANGE_INTERPOLATED,False,03111,BG,False,UBI Banca,True,89150,Valbrembo,False,24030,9.607810974121094,45.71281433105469,Valbrembo,035339015,10,"Via Kennedy, 1B",False,035528510,False,False,bpb-0571@bpb.it,Filiale di Valbrembo,6716,10112,ec178834-468a-41af-8c13-558152ae9771,
5-OK,False,03111,BG,False,UBI Banca,True,89250,Pontida,False,24030,9.499380111694336,45.73292922973633,Pontida,035796229,10,"Via Lega Lombarda, 161",False,035795000,False,False,bpb-0212@bpb.it,Filiale di Pontida,6718,10112,bd1065b3-22f3-498d-84eb-b575aae4b425,
5-OK,False,03111,BG,False,UBI Banca,True,89370,Sedrina,False,24010,9.621170043945312,45.78083419799805,Sedrina,034560892,10,"Via Roma, 14",False,034560652,False,False,bpb-0441@bpb.it,Filiale di Sedrina,6720,10112,4fe77505-8b85-4727-a9b5-16bad0c776b4,
GEOMETRIC_CENTER,False,03111,BG,False,UBI Banca,True,11120,Bergamo,False,24122,9.667397499084473,45.6978874206543,Bergamo,035271917,10,"Piazza della Repubblica, 4",False,035271089,False,False,bpb-0084@bpb.it,Filiale di Bergamo Piazza Repubblica,7043,10112,701b94cc-b498-45c7-8e79-574f3b2d9db1,
5-OK,False,03111,BG,False,UBI Banca,True,52910,Cerete,False,24020,9.992400169372559,45.86054992675781,Cerete,034663365,10,"Via Moscheni, 44",False,034663311,False,False,bpb-0220@bpb.it,Minisportello di Cerete Basso - Filiale di Clusone,7736,10112,a594a225-6680-4a91-90d4-76a588115ecc,
5-OK,False,03111,BG,False,UBI Banca,True,53570,Stezzano,True,24126,9.659749984741211,45.667171478271484,Stezzano,035317471,10,"Via Stezzano, 87 c/o Kilometrorosso",False,0352051030,False,False,bpb-0470@bpb.it,Minisportello di Stezzano c/o Kilometrorosso - Filiale di Stezzano,7757,10112,2a9b1362-b344-4b3f-ad9c-44e12b393d17,
5-OK,False,03111,BG,False,UBI Banca,False,52790,Monasterolo del Castello,False,24060,9.930399894714355,45.762088775634766,Monasterolo del Castello,,10,"Via Monte Grappa, 27",False,035814528,False,False,bpb-0200@bpb.it,Minisportello di Monasterolo del Castello -Filiale di Casazza-,7760,10112,3f511036-fc73-4ed7-9a4a-2a4f3792f6a8,
0-OK,False,03111,BG,False,UBI Banca,False,52910,Piario,False,24020,9.9298095703125,45.89904022216797,Piario,,10,"Via Mazzini, 1/A",False,034625008,False,False,bpb-0220@bpb.it,Minisportello di Piario -Filiale di Clusone-,7761,10112,282c04fc-d26e-42d5-b2fe-565f258db2ea,
0-OK,False,03111,BG,False,UBI Banca,True,52600,Ponte Giurino,False,24030,9.555179595947266,45.798370361328125,Berbenno,035863503,10,"Via Stoppani, 102",False,035863055,False,False,bpb-0580@bpb.it,Filiale di Ponte Giurino (Berbenno),7763,10112,90585c63-3f21-4ded-8f48-19d05fc7422e,
5-OK,False,03111,BG,False,UBI Banca,True,53430,Onore,False,24020,10.011560440063477,45.890281677246094,Onore,,10,"Via Sant Antonio, 98",False,034674005,False,False,bpb-0330@bpb.it,Minisportello di Onore - Filiale di Rovetta,7764,10112,06e151f8-c4bd-4075-b0be-879cb7419acf,
5-OK,False,03111,BG,False,UBI Banca,False,53460,Rota d'Imagna,False,24037,9.514419555664062,45.83066940307617,Rota d'Imagna,,10,"Via Calchera, 1",False,035852614,False,False,bpb-0360@bpb.it,Minisportello di Rota d'Imagna -Filiale di Sant'Omobono Terme-,7765,10112,a263011d-608b-4b33-a98c-091ea7b6f6ac,
0-OK,False,03111,BG,False,UBI Banca,False,53470,Adrara San Rocco,False,24060,9.958459854125977,45.714439392089844,Adrara San Rocco,,10,"Piazza Papa Giovanni XXIII, 6",False,035934283,False,False,bpb-0380@bpb.it,Minisportello di Adrara San Rocco -Filiale di Sarnico-,7767,10112,b41faff0-da43-4939-9e36-18d5c24b05d8,
0-OK,False,03111,BG,False,UBI Banca,False,53470,Viadanica,False,24060,9.961700439453125,45.68516159057617,Viadanica,,10,"Via Pietra, 4",False,035926535,False,False,bpb-0380@bpb.it,Minisportello di Viadanica - Filiale di Sarnico,7768,10112,f5a378f4-7ea6-4674-8085-047893ed9dad,
5-OK,False,03111,BG,False,UBI Banca,True,53550,Bossico,False,24060,10.045729637145996,45.827518463134766,Bossico,,10,"Via Capitan Rodari, 2",False,035983746,False,False,bpb-0520@bpb.it,Minisportello di Bossico -Filiale di Sovere-,7769,10112,18df1d7b-e264-4283-9944-b002f4e89158,
0-OK,False,03111,BG,False,UBI Banca,False,53590,Vigolo,False,24060,10.022520065307617,45.71615982055664,Vigolo,,10,"Via Roma, 8",False,035932883,False,False,bpb-0680@bpb.it,Minisportello di Vigolo -Filiale di Tavernola-,7770,10112,a903563a-9612-415e-9d2e-d21c7c4bd3db,
0-OK,False,03111,BG,False,UBI Banca,False,53790,Ubiale Clanezzo,False,24010,9.616310119628906,45.78208923339844,Ubiale Clanezzo,,10,"Via Papa Giovanni XIII, 1 c/o centro sociale comune Ubiale",False,034592916,False,False,bpb-0440@bpb.it,Minisportello di Ubiale Clanezzo -Filiale di Zogno-,7771,10112,5e7fbf5a-aa49-4f91-8279-50c8a6a2f479,
0-OK,False,03111,BG,False,UBI Banca,True,53430,Songavazzo,False,24020,9.98766040802002,45.881351470947266,Songavazzo,034674729,10,Via Vittorio Veneto,False,034674754,False,False,bpb-0330@bpb.it,Minisportello di Songavazzo - Filiale di Rovetta,7784,10112,5e337b2f-5974-484c-bb9e-1ca4312def18,
0-OK,False,03111,BG,False,UBI Banca,True,53470,Adrara San Martino,False,24060,9.947500228881836,45.69968032836914,Adrara San Martino,,10,"Via Madaschi, 103",False,035934267,False,False,bpb-0380@bpb.it,Minisportello di Adrara San Martino -Filiale di Sarnico-,7766,10112,17f3677c-bcd4-4dd9-aa7a-453df25bc313,
0-OK,False,05026,BG,False,UBI BANCA,False,11122,Bergamo,False,24122,9.66804027557373,45.69498825073242,Bergamo,035392130,10,"Via Crispi, 4",False,035392129,False,False,ubi-0201@ubibanca.it,Filiale di Bergamo,7047,10112,32c29895-ae53-4aef-8afa-d38c735adffc,
0-OK,False,03111,BG,False,UBI Banca,True,11100,Bergamo,False,24122,9.659114837646484,45.692100524902344,Bergamo,035241032,10,"Via Palma Il Vecchio, 113",False,035241002,False,False,bbs-0121@bancodibrescia.it,Filiale di Bergamo,7040,10112,6730dd0a-ad02-4b71-8e57-6c47304371a6,
0-OK,False,03111,BG,False,UBI Banca,True,11102,Bergamo,False,24100,9.676884651184082,45.69780349731445,Bergamo,035270340,10,"Via Camozzi, 101",False,035270340,False,False,bbs-0348@bancodibrescia.it,Filiale di Bergamo - Via Camozzi,7044,10112,0b82ea5d-aad3-4bc2-911c-8b634e30273e,
0-OK,False,03111,BG,False,UBI Banca,True,11104,Bergamo,False,24100,9.707189559936523,45.68954849243164,Bergamo,35246864,10,"Via Borgo Palazzo, 93",False,35249341,False,False,bbs-0264@bancodibrescia.it,Filiale di Bergamo - Borgo Palazzo,7046,10112,c33a80b5-1bc9-48b8-aea6-1b4c348604af,
0-OK,False,03111,BG,False,UBI Banca,True,52660,Brembate Di Sopra,False,24030,9.581780433654785,45.71226119995117,Brembate Di Sopra,035332664,10,Via Bruno Locatelli,False,035332664,False,False,bbs-0366@bancodibrescia.it,Filiale di Brembate Sopra,7376,10112,d0222171-68b1-4f58-9d93-475b2e9a81f2,
5-OK,False,03111,BG,False,UBI Banca,True,52920,Cologno Al Serio,False,24055,9.709429740905762,45.579769134521484,Cologno Al Serio,035891450,10,"Via San Martino, 2",False,0354872159,False,False,bbs-0352@bancodibrescia.it,Filiale di Cologno Al Serio,7379,10112,85c49d36-3361-432c-ad43-a0f50f01c893,
RANGE_INTERPOLATED,False,03111,BG,False,UBI Banca,True,53870,Bagnatica,False,24060,9.815088272094727,45.6337890625,Bagnatica,035680869,10,"Via Marconi, 6E",False,035683240,False,False,bpb-1963@bpb.it,Filiale di Bagnatica,7893,10112,56660240-b337-4360-b1b2-5d5ef695b4e3,
GEOMETRIC_CENTER,False,03111,BG,False,UBI Banca,True,53440,Taleggio,False,24010,9.614447593688965,45.9669303894043,Taleggio,034547574,10,"Via Roma, 837",False,034547047,False,False,bpb-0750@bpb.it,Minisportello di Olda - Taleggio - Filiale di San Giovanni Bianco,8190,10112,90cd447a-d88c-4068-bb47-b5c6e2535ee9,
0-OK,False,03111,BI,False,UBI Banca,True,22300,Biella,False,13900,8.052929878234863,45.56262969970703,Biella,01528635,10,"Via Nazario Sauro, 2",False,015355595,False,False,bre-0070@brebanca.it,Filiale di Biella - Via Nazario Sauro,5893,10112,04facc5f-bc0b-4b11-84bd-80f70f30c615,
5-OK,False,03111,BI,False,UBI Banca,True,44430,Cossato,False,13836,8.1799898147583,45.56861114501953,Cossato,015926797,10,"Via Lamarmora, 9",False,0159843711,False,False,bre-0184@brebanca.it,Filiale di Cossato - Via Lamarmora,6173,10112,f88bc61a-045f-4be7-811b-4bb317a0d913,
0-OK,False,03111,BO,False,UBI Banca,True,02403,Bologna,False,40127,11.362130165100098,44.50564956665039,Bologna,0516331176,10,"Viale Della Repubblica, 31",False,0516370311,False,False,bpci-0132@bpci.it,Minisportello di Bologna viale della Repubblica - Filiale di Bologna - Ercolani,6878,10112,46fc604d-e07b-4802-9cac-354704c5ec2e,
5-OK,False,03111,BO,False,UBI Banca,True,02403,Bologna,False,40139,11.386104583740234,44.478153228759766,Bologna,0516240427,10,"Via Lombardia, 7/A",False,0516240500,False,False,bpci-0134@bpci.it,Filiale di Bologna Via Lombardia,6881,10112,817813dd-9036-49a8-abb4-869ae5134ca1,
0-OK,False,03111,BO,False,UBI Banca,True,02402,Bologna,False,40122,11.332980155944824,44.50067901611328,Bologna,051550381,10,"Via Ercolani, 4/E",False,0515281911,False,False,bpci-0132@bpci.it,Filiale di Bologna -Ercolani-,7685,10112,b626cd9e-03fd-401f-8bea-00650f96e5b0,
0-OK,False,03111,BO,False,UBI Banca,True,37130,Zola Predosa,False,40069,11.221529960632324,44.490638732910156,Zola Predosa,051750536,10,"Via Risorgimento, 109",False,0516166771,False,False,bpci-0135@bpci.it,Filiale di Zola Predosa,6009,10112,58c93f4f-a024-4ed8-a443-f625786a8424,
0-OK,False,03111,BS,False,UBI Banca,True,11200,Brescia,False,25122,10.218315124511719,45.53487014770508,Brescia,0303721291,10,"Via Gramsci, 39",False,03037211,False,False,bpb-2020@bpb.it,Filiale di Brescia Sede,5789,10112,a4644660-9657-499e-8702-96280aad010b,
5-OK,False,03111,BS,False,UBI Banca,True,54340,Chiari,False,25032,9.935400009155273,45.53390884399414,Chiari,0307000541,10,Via Papa Giovanni XXIII-Bettolini 6-,False,0307006611,False,False,bpb-0810@bpb.it,Filiale di Chiari,6402,10112,d5681819-b3c6-42a9-b359-ac1b56dad74f,
5-OK,False,03111,BS,False,UBI Banca,True,54410,Concesio,False,25062,10.211600303649902,45.60647964477539,Concesio,0302180283,10,"Viale Europa, 183",False,0302753311,False,False,bpb-1821@bpb.it,Filiale di Concesio,6403,10112,278f0feb-bba2-4e3f-9f7d-24cfcdcf4f16,
5-OK,False,03111,BS,False,UBI Banca,True,54440,Darfo Boario Terme,False,25047,10.18080997467041,45.88365936279297,Darfo Boario Terme,0364532481,10,"Piazza Lorenzini Colonnello, 6/7",False,0364533561,False,False,bpb-0230@bpb.it,Filiale di Darfo Boario Terme,6404,10112,e6747ab0-5a9a-4f3d-9bb4-f2288f8be184,
5-OK,False,03111,BS,False,UBI Banca,True,54730,Manerbio,False,25025,10.14348030090332,45.357669830322266,Manerbio,0309381346,10,"Via Dante, 5",False,0309382011,False,False,bpb-1830@bpb.it,Filiale di Manerbio,6407,10112,c0013520-c45c-4e94-9e34-22edcc90f813,
5-OK,False,03111,BS,False,UBI Banca,True,54870,Ospitaletto,False,25035,10.073670387268066,45.548091888427734,Ospitaletto,030641441,10,"Via Martiri Della Liberta', 27",False,0306840532,False,False,bpb-1822@bpb.it,Filiale di Ospitaletto,6409,10112,b134503c-b26c-4858-820f-7c4a786230db,
5-OK,False,03111,BS,False,UBI Banca,True,54900,Palazzolo Sull'oglio,False,25036,9.88263988494873,45.5977783203125,Palazzolo Sull'oglio,0307401490,10,"Piazza Roma, 1",False,0307401500,False,False,bpb-0090@bpb.it,Filiale di Palazzolo Sull`Oglio,6410,10112,3e5ef999-9727-46ad-8c29-1aa70dabfca1,
0-OK,False,03111,BS,False,UBI Banca,True,54910,Paratico,False,25030,9.954110145568848,45.660240173339844,Paratico,,10,"Via Don G.Moioli, 17",False,035914704,False,False,bpb-0380@bpb.it,Filiale di Paratico,6411,10112,383f5160-8513-4402-a53b-3ebb0d0dd1c9,
5-OK,False,03111,BS,False,UBI Banca,True,54940,San Paolo,False,25020,10.022130012512207,45.37113952636719,San Paolo,0309979007,10,"Via Mazzini, 60",False,0309970461,False,False,bpb-0850@bpb.it,Filiale di San Paolo,6412,10112,63fb64e1-073b-43a7-a3c1-2f8cc6ea5b84,
5-OK,False,03111,BS,False,UBI Banca,True,55210,San Zeno Naviglio,False,25010,10.220370292663574,45.49351501464844,San Zeno Naviglio,030266161,10,"Via Tito Speri, 1",False,030266562,False,False,bpb-1840@bpb.it,Filiale di San Zeno Naviglio,6414,10112,b8b45684-4068-456c-85e4-91fb62705601,
5-OK,False,03111,BS,False,UBI Banca,True,53990,Adro,False,25030,9.960240364074707,45.62028884887695,Adro,0307357313,10,"Via Roma, 1",False,0307450221,False,False,bbs-0110@bancodibrescia.it,Filiale di Adro,7390,10112,fbb5232f-5b06-4442-9f7a-821f8d60d7ff,
0-OK,False,03111,BS,False,UBI Banca,True,11200,Brescia,False,25124,10.226849555969238,45.51439666748047,Brescia,0303531996,10,"Viale Duca Degli Abruzzi, 175",False,0303531984,False,False,bvc-0421@bancavalle.it,Filiale di Brescia,7051,10112,2083de49-6401-4cb3-b178-02721a79a11d,
5-OK,False,03111,BS,False,UBI Banca,True,11201,Brescia,False,25123,10.252889633178711,45.52995681762695,Brescia,030360603,10,"Viale della Bornata, 2",False,0303762579,False,False,bvc-0041@bancavalle.it,Filiale di Brescia 1,7053,10112,10977fb0-4461-4bad-b9ff-a3a9bfaf9d00,
5-OK,False,03111,BS,False,UBI Banca,True,54020,Angolo Terme,False,25040,10.148249626159668,45.89155960083008,Angolo Terme,0364548755,10,"Piazza Degli Alpini, 4",False,0364548042,False,False,bvc-0432@bancavalle.it,Filiale di Angolo Terme,7391,10112,b11938b2-85e7-4554-8732-7f4a596f8974,
5-OK,False,03111,BS,False,UBI Banca,True,54030,Artogne,False,25040,10.162210464477539,45.84817886352539,Artogne,0364598710,10,"Via Geroni, 12",False,0364591280,False,False,bvc-0433@bancavalle.it,Filiale di Artogne,7392,10112,90988e6b-7ff3-46f2-b43b-672d5dbe099d,
5-OK,False,03111,BS,False,UBI Banca,True,54120,Borno,False,25042,10.205829620361328,45.94715118408203,Borno,0364418117,10,"Piazza Giovanni II, 13",False,0364310067,False,False,bvc-0437@bancavalle.it,Filiale di Borno,7399,10112,875ae6b0-80ac-44bc-8370-4e4849fa986d,
4-Toponimo_non_trovato,False,03111,BS,False,UBI Banca,True,54160,Breno,False,25043,10.302000045776367,45.95650100708008,Breno,0364239330,10,Piazza Repubblica 1/2,False,0364239900,False,False,bvc-0422@bancavalle.it,Filiale di Breno,7405,10112,51df22ee-0486-44ca-a1af-a1e20955b1a3,
0-OK,False,03111,BS,False,UBI Banca,True,54200,Capo Di Ponte,False,25044,10.343480110168457,46.03120040893555,Capo Di Ponte,0364426128,10,"Viale Stazione, 16",False,0364331077,False,False,bvc-0279@bancavalle.it,Filiale di Capodiponte,7408,10112,5ed7f8f3-5d8d-4870-a46d-756b2a1dbb9d,
CUSTOM,False,03111,BS,False,UBI Banca,True,54090,Bienno,False,25040,10.295129776000977,45.9356803894043,Bienno,0364300245,10,"Piazza Liberazione,2",False,0364300516,False,False,bvc-0434@bancavalle.it,Filiale di Bienno,7397,10112,64db6953-ebd9-46df-908c-0ec7b39a0bde,
5-OK,False,03111,BS,False,UBI Banca,True,54300,Cazzago San Martino,False,25040,10.041069984436035,45.595359802246094,Cazzago San Martino,0307750234,10,"Via Del Gallo, 2 - Cazzago San Martino",False,0307255421,False,False,bvc-0428@bancavalle.it,Filiale di Bornato,7416,10112,a483fc55-fd8a-4145-bc2e-f559423a4186,
5-OK,False,03111,BS,False,UBI Banca,True,54310,Cedegolo,False,25051,10.349820137023926,46.07435989379883,Cedegolo,0364630047,10,"Via Roma, 26/28",False,0364630021,False,False,bvc-0438@bancavalle.it,Filiale di Cedegolo,7418,10112,6e165cf6-8a37-41af-8a59-217a1a55f0d4,
5-OK,False,03111,BS,False,UBI Banca,True,54330,Cevo,False,25040,10.371859550476074,46.080509185791016,Cevo,0364634617,10,"Via Roma,44",False,0364634106,False,False,bvc-0439@bancavalle.it,Filiale di Cevo,7420,10112,286d98ca-51de-4c6a-8987-3dd700906af8,
0-OK,False,03111,BS,False,UBI Banca,True,54350,Cividate Camuno,False,25040,10.27157974243164,45.940120697021484,Cividate Camuno,0364341039,10,Via Cortiglione,False,0364340426,False,False,bvc-0285@bancavalle.it,Filiale di Cividate Camuno,7423,10112,817e3474-4842-4b57-be96-a0be5f9c151c,
ROOFTOP,False,03111,BS,False,UBI Banca,True,54360,Coccaglio,False,25030,9.977187156677246,45.56340408325195,Coccaglio,0307701923,10,"Via G. Marconi, 1",False,0307241161,False,False,bvc-0429@bancavalle.it,Filiale di Coccaglio,7424,10112,e760dcc3-cb7c-4827-8ce8-9eb151fc5f51,
-,False,03111,BS,False,UBI Banca,True,54431,Corteno Golgi,False,25040,10.236289978027344,46.16450881958008,Corteno Golgi,036474667,10,Via Roma,False,0364770002,False,False,bvc-0442@bancavalle.it,Filiale di Corteno Golgi,7430,10112,ad3c0d2d-6613-45b1-85f3-5e9f554a178b,
5-OK,False,03111,BS,False,UBI Banca,True,54490,Esine,False,25040,10.256799697875977,45.92470932006836,Esine,036446463,10,"Piazza Garibaldi, 4/6",False,036446015,False,False,bvc-0443@bancavalle.it,Filiale di Esine,7440,10112,6e5a4800-7cc0-4f63-b7b7-d7ca33ac1408,
5-OK,False,03111,BS,False,UBI Banca,True,54441,Darfo,False,25047,10.18181037902832,45.87968063354492,Darfo,0364535486,10,"Via Roma,71",False,0364531103,False,False,bvc-0427@bancavalle.it,Filiale di Darfo,7432,10112,550908f5-3858-483a-be3f-41b164ca89a2,
0-OK,False,03111,BS,False,UBI Banca,True,54700,Malegno,False,25053,10.27791976928711,45.949859619140625,Malegno,0364341024,10,Via Lanico,False,0364340165,False,False,bvc-0441@bancavalle.it,Filiale di Malegno,7465,10112,07c5f30b-354d-4d36-a0ec-bfaaddb8886f,
5-OK,False,03111,BS,False,UBI Banca,True,54950,Pian Camuno,False,25050,10.154529571533203,45.84334945678711,Pian Camuno,0364599207,10,"Piazza G. Verdi, 8",False,0364591466,False,False,bvc-0337@bancavalle.it,Filiale di Pian Camuno,7490,10112,eb729558-d934-4942-a4da-115e58b7342c,
5-OK,False,03111,BS,False,UBI Banca,True,54960,Pisogne,False,25050,10.13005542755127,45.8309211730957,Pisogne,036489203,10,"Via Provinciale, 6",False,036486088,False,False,bvc-0444@bancavalle.it,Filiale di Gratacasolo,7492,10112,1df08720-13d5-4ec7-beb1-92b37104dea7,
ROOFTOP,False,03111,BS,False,UBI Banca,True,54990,Ponte Di Legno,False,25056,10.509517669677734,46.26072692871094,Ponte Di Legno,0364900121,10,"Via Cima Cadì, 5/7/9",False,036491020,False,False,bvc-0446@bancavalle.it,Filiale di Ponte di Legno,7495,10112,96f08133-b91a-4e21-8602-c1ff5c4d60c7,
5-OK,False,03111,BS,False,UBI Banca,True,55060,Provaglio d' Iseo,False,25050,10.046500205993652,45.635719299316406,Provaglio d' Iseo,0309823879,10,"Via Roma, 12",False,0309823890,False,False,bvc-0419@bancavalle.it,Filiale di Provaglio d' Iseo,7499,10112,b36b22e5-badd-4d9e-ac63-7ab810e4754a,
5-OK,False,03111,BS,False,UBI Banca,True,54900,Palazzolo Sull'oglio,False,25030,9.925274848937988,45.619083404541016,Palazzolo Sull'oglio,030738520,10,"Via XXV Aprile, 23 - Palazzolo S/O",False,0307301153,False,False,bvc-0448@bancavalle.it,Filiale di San Pancrazio,7485,10112,f7190aba-ba69-4503-b127-41e7e4298f9d,
5-OK,False,03111,BS,False,UBI Banca,True,55280,Temu',False,25050,10.470009803771973,46.248619079589844,Temu',0364906016,10,"Via Roma, 71/73",False,0364906016,False,False,bvc-0404@bancavalle.it,Filiale di Temu',7525,10112,64b13862-2e82-4cee-8bbf-d54b6915fb96,
5-OK,False,03111,BS,False,UBI Banca,True,55300,Torbole Casaglia,False,25030,10.10851001739502,45.508914947509766,Torbole Casaglia,0302650869,10,"Piazza Repubblica, 25/26",False,0302150442,False,False,bvc-0549@bancavalle.it,Filiale di Torbole Casaglia,7527,10112,67980ee2-18cf-4998-95e2-6415967ed9e1,
5-OK,False,03111,BS,False,UBI Banca,True,55470,Piamborno,False,25050,10.217679977416992,45.917179107666016,Piamborno,036445391,10,"Via XI Febbraio, 1",False,0364360056,False,False,bvc-0445@bancavalle.it,Filiale di Piamborno,7540,10112,c1b19cf6-7cc8-4617-b0e0-3dea5cd9dcdd,
5-OK,False,03111,BS,False,UBI Banca,False,55470,Piancogno,False,25052,10.240320205688477,45.92893981933594,Piancogno,036445558,10,"Via Vittorio Veneto, 7",False,0364466999,False,False,bvc-0445@bancavalle.it,Minisportello di Piancogno - Filiale di Piamborno -,7541,10112,59e6099f-2c46-44dd-a617-cd9cec25bce4,
5-OK,False,03111,BS,False,UBI Banca,True,55560,Ceto,False,25040,10.342729568481445,46.00025177001953,Ceto,0364434369,10,"Loc. Badetto, 23",False,0364434359,False,False,bvc-0414@bancavalle.it,Filiale di Ceto,7545,10112,8a7db9f5-7e54-48dd-b22e-7e86e112c948,
0-OK,False,03111,BS,False,UBI Banca,False,54310,Berzo Demo,False,25040,10.339460372924805,46.08771896362305,Berzo Demo,0364630251,10,"Via San Zenone, 9",False,0364630077,False,False,bvc-0438@bancavalle.it,Minisportello di Berzo Demo - Filiale di Cedegolo,7652,10112,46d09706-e22c-4480-ac10-0bd3892aeb77,
5-OK,False,03111,BS,False,UBI Banca,True,54160,Niardo,False,25050,10.336600303649902,45.97739028930664,Niardo,0364330216,10,"Piazza Cappellini, 3",False,0364330455,False,False,bvc-0422@bancavalle.it,Minisportello di Niardo - Filiale di Breno,7778,10112,4221736d-99df-4006-9acb-411c903e981f,
0-OK,False,03111,BS,False,UBI Banca,True,11238,Brescia,True,25171,10.215399742126465,45.53731155395508,Brescia,0302992439,10,"Corso Martiri Della Libertà, 13",False,03029921,False,False,bbs-0061@bancodibrescia.it,Filiale di Brescia - Corso Martiri,7049,10112,3cfe1b45-39f9-4fa2-ab70-876b31ff61b2,
0-OK,False,03111,BS,False,UBI Banca,True,11205,Brescia,False,25121,10.221770286560059,45.5359001159668,Brescia,0302400564,10,"Via S. Martino, 2 Angolo Corso Zanardelli 54",False,0302400574,False,False,bbs-0052@bancodibrescia.it,Filiale di Brescia - Corso Zanardelli,7057,10112,ed893c91-bf41-405f-930c-49a66ca3403e,
0-OK,False,03111,BS,False,UBI Banca,True,11206,Brescia,False,25122,10.212690353393555,45.54442596435547,Brescia,03042140,10,"Contrada del Carmine, 67",False,03042140,False,False,bbs-0036@bancodibrescia.it,Filiale di Brescia - Carmine,7058,10112,d7639f5d-ecc2-49e9-b33a-7b63bf95cd03,
0-OK,False,03111,BS,False,UBI Banca,True,11207,Brescia,False,25126,10.180709838867188,45.547080993652344,Brescia,030311925,10,"Via Valle Camonica, 6",False,030316770,False,False,bbs-0037@bancodibrescia.it,Filiale di Brescia - Via Valle Camonica,7059,10112,ee73abc5-1c53-4d4f-a5cf-8673ff9674d7,
0-OK,False,03111,BS,False,UBI Banca,True,11208,Brescia,True,25124,10.226550102233887,45.548919677734375,Brescia,0303700597,10,"Via S. Maria Crocifissa di Rosa, 67",False,030305234,False,False,bbs-0038@bancodibrescia.it,Filiale di Brescia - Crocifissa di Rosa,7060,10112,e4b12093-d8c1-42a7-bcf5-fbaa68b8787a,
0-OK,False,03111,BS,False,UBI Banca,True,11209,Brescia,False,25121,10.220355033874512,45.53962326049805,Brescia,03042942,10,"Piazza Loggia, 5",False,0303755532,False,False,bbs-0031@bancodibrescia.it,Filiale di Brescia - Piazza della Loggia,7061,10112,8ce31ff9-f1a5-4da4-bde6-7f5252a8e5ed,
0-OK,False,03111,BS,False,UBI Banca,True,11210,Brescia,True,25122,10.221295356750488,45.537925720214844,Brescia,0302293364,10,"Via Trieste, 8",False,03022931,False,False,bbs-0010@bancodibrescia.it,Filiale di Brescia - Via Trieste,7062,10112,406c2529-ac11-4374-9122-fa02b2b30eba,
5-OK,False,03111,BS,False,UBI Banca,True,11212,Brescia,False,25134,10.259039878845215,45.50572967529297,Brescia,0302300056,10,"Via Bettole, 1 - Frazione San Polo",False,0302300056,False,False,bbs-0046@bancodibrescia.it,Filiale di Brescia - Via Bettole,7063,10112,46d135ca-14c8-48d9-a7d1-21093ad72e29,
5-OK,False,03111,BS,False,UBI Banca,True,11215,Brescia,False,25128,10.216309547424316,45.55344009399414,Brescia,030381421,10,"Via Vittorio Veneto, 73 - Ang. Via Tofane",False,030395924,False,False,bbs-0043@bancodibrescia.it,Filiale di Brescia - Via Vittorio Veneto,7066,10112,f3cdce93-a330-47c6-a043-c99f3eae2416,
5-OK,False,03111,BS,False,UBI Banca,True,11217,Brescia,False,25134,10.252824783325195,45.52351379394531,Brescia,0302311029,10,"Via Masaccio, 29 - Fraz. San Polo",False,0302311029,False,False,bbs-0054@bancodibrescia.it,Filiale di Brescia - San Polo,7067,10112,6c2af6bb-3027-4f88-baed-4cc2380f646e,
0-OK,False,03111,BS,False,UBI Banca,True,11220,Brescia,False,25124,10.236200332641602,45.519378662109375,Brescia,0303533574,10,"Via Bissolati, 57",False,0303533530,False,False,bbs-0058@bancodibrescia.it,Filiale di Brescia - Poliambulanza,7069,10112,ad22f8ec-6035-46c5-aa0d-71cef5a6f632,
0-OK,False,03111,BS,False,UBI Banca,True,11224,Brescia,False,25125,10.231389999389648,45.554988861083984,Brescia,030394515,10,"Piazzale Ospedali Civili, 1",False,030394515,False,False,bbs-0039@bancodibrescia.it,Filiale di Brescia - Ospedali Civili,7071,10112,235e53d8-5ad6-40ed-8ca8-8012a153c941,
0-OK,False,03111,BS,False,UBI Banca,True,11202,Brescia,False,25121,10.229290008544922,45.53630065917969,Brescia,0303750185,10,"Corso Magenta, 73 - Ang. Via Tosio",False,0303750185,False,False,bbs-0032@bancodibrescia.it,Filiale di Brescia - Piazza Arnaldo,7054,10112,be7431f9-fe2e-4434-9e26-f9429fa43bd5,
0-OK,False,03111,BS,False,UBI Banca,True,11203,Brescia,False,25128,10.185159683227539,45.53118896484375,Brescia,030349570,10,"Via Lecco, 1",False,030349570,False,False,bbs-0033@bancodibrescia.it,Filiale di Brescia - Via Lecco,7055,10112,1272a014-11ae-4abc-91d2-536a275a217f,
5-OK,False,03111,BS,False,UBI Banca,True,11235,Brescia,False,25124,10.214685440063477,45.525306701660156,Brescia,0302425941,10,"Via Cefalonia, 76",False,0302425915,False,False,bbs-0035@bancodibrescia.it,Filiale di Brescia - Via Cefalonia,7076,10112,eacf1903-675f-478e-abac-5edd9d1d64d1,
0-OK,False,03111,BS,False,UBI Banca,True,11240,Brescia,False,25126,10.199999809265137,45.5442008972168,Brescia,0303730291,10,"Via Milano, 21 B",False,030310831,False,False,bbs-0040@bancodibrescia.it,Filiale di Brescia - Via Milano,7077,10112,e364773d-5b41-4c43-8b0e-e6e50e6542e6,
0-OK,False,03111,BS,False,UBI Banca,True,11245,Brescia,False,25122,10.196394920349121,45.52695083618164,Brescia,0303531884,10,"Via Orzinuovi, 9/11",False,0303533067,False,False,bbs-0045@bancodibrescia.it,Filiale di Brescia - Via Orzinuovi,7078,10112,e2406d73-326f-47e5-94d6-10eb25d06a0b,
0-OK,False,03111,BS,False,UBI Banca,True,11250,Brescia,False,25135,10.272890090942383,45.521400451660156,Brescia,030361259,10,"Via Indipendenza, 43",False,030361158,False,False,bbs-0050@bancodibrescia.it,Filiale di Brescia - Via Indipendenza,7079,10112,ed9b4c98-6e68-4136-8f14-88f1e42bd300,
0-OK,False,03111,BS,False,UBI Banca,True,11260,Brescia,False,25121,10.21905517578125,45.5323486328125,Brescia,03045990,10,"Via Solferino, 30/A",False,030280541,False,False,bbs-0060@bancodibrescia.it,Filiale di Brescia - Via Solferino,7080,10112,995fe397-ecb7-493c-bda5-f7d3f6d49fa5,
0-OK,False,03111,BS,False,UBI Banca,True,11270,Brescia,False,25125,10.22245979309082,45.55060577392578,Brescia,0303702628,10,"Via Trento, 25/27",False,030399031,False,False,bbs-0070@bancodibrescia.it,Filiale di Brescia - Via Trento 25,7081,10112,3a676970-16cc-4f00-a9f6-9fa487a4d217,
0-OK,False,03111,BS,False,UBI Banca,True,11280,Brescia,False,25123,10.234539985656738,45.530941009521484,Brescia,030296553,10,"Viale Duca d'Aosta, 19",False,03043477,False,False,bbs-0080@bancodibrescia.it,Filiale di Brescia - Viale Duca d'Aosta,7082,10112,340049f0-f689-46ff-833b-7cdae9ecb5bc,
0-OK,False,03111,BS,False,UBI Banca,True,11290,Brescia,False,25133,10.24106502532959,45.56869125366211,Brescia,0302008834,10,"Via Ambaraga,126",False,0302004607,False,False,bbs-0090@bancodibrescia.it,Filiale di Brescia - Via Ambaraga,7083,10112,53d742e2-111c-434d-bdc3-46c4470780d2,
5-OK,False,03111,BS,False,UBI Banca,True,11297,Brescia,False,25123,10.231430053710938,45.55373001098633,Brescia,0303700734,10,"Via San Rocchino, 106",False,030397014,False,False,bbs-0097@bancodibrescia.it,Filiale di Brescia - Via San Rocchino,7084,10112,b6708bea-d3c4-4cb9-a933-f13752a89ee1,
0-OK,False,03111,BS,False,UBI Banca,True,11299,Brescia,False,25123,10.214850425720215,45.520469665527344,Brescia,030348193,10,"Via Lamarmora, 230",False,0303542095,False,False,bbs-0055@bancodibrescia.it,Filiale di Brescia - Via Lamarmora,7085,10112,8ad04066-95c9-47f0-b9e0-b1f65b931e7d,
0-OK,False,03111,BS,False,UBI Banca,True,11225,Brescia,False,25126,10.19540023803711,45.55733108520508,Brescia,0303730948,10,"Via Chiusure, 333/A",False,030318061,False,False,bbs-0025@bancodibrescia.it,Filiale di Brescia - Via Chiusure,7072,10112,80c0377a-7528-4ddf-b949-a4ea87327a2b,
0-OK,False,03111,BS,False,UBI Banca,True,11226,Brescia,False,25127,10.200799942016602,45.5298957824707,Brescia,030221541,10,"Via San Giovanni Bosco, 15/C",False,030221541,False,False,bbs-0044@bancodibrescia.it,Filiale di Brescia - Via San Giovanni Bosco,7073,10112,e5a30094-6e51-44a1-82c5-8b8c763e48a2,
GEOMETRIC_CENTER,False,03111,BS,False,UBI Banca,True,11228,Brescia,False,25125,10.223126411437988,45.524085998535156,Brescia,030223905,10,"Via Repubblica Argentina,90 angolo Via Cremona",False,030222915,False,False,bbs-0047@bancodibrescia.it,Filiale di Brescia - Via Cremona,7074,10112,be281c25-5b77-4008-8702-429b7a1f44a9,
5-OK,False,03111,BS,False,UBI Banca,True,44970,Milzano,False,25020,10.201899528503418,45.27399826049805,Milzano,0309547594,10,"Piazza Roma, 13",False,0309547594,False,False,bbs-0243@bancodibrescia.it,Filiale di Milzano,7229,10112,2e1bfc5b-be30-4a9e-9837-30835b237aee,
ROOFTOP,False,03111,BS,False,UBI Banca,True,54190,Acquafredda,False,25010,10.41530990600586,45.30659866333008,Acquafredda,0309967929,10,"Via Della Repubblica, 30",False,0309967929,False,False,bbs-0322@bancodibrescia.it,Filiale di Calvisano - Minisportello di Acquafredda,7389,10112,b4fbee7f-d947-4efe-9f9a-2323e7c94fa1,
5-OK,False,03111,BS,False,UBI Banca,True,54041,Bagnolo Mella,False,25021,10.183070182800293,45.42988967895508,Bagnolo Mella,0306820831,10,"Via Xxvi Aprile, 69/71",False,0306820831,False,False,bbs-0274@bancodibrescia.it,Filiale di Bagnolo Mella 1,7393,10112,00712b70-e1b5-4134-94c4-0c058cc86fda,
5-OK,False,03111,BS,False,UBI Banca,True,54080,Bedizzole,False,25081,10.423239707946777,45.51279067993164,Bedizzole,0306870777,10,"Via Trento, 3/5",False,0306870774,False,False,bbs-0120@bancodibrescia.it,Filiale di Bedizzole - Via Trento,7395,10112,010ab707-3954-4067-93bd-3b83690bc942,
CUSTOM,False,03111,BS,False,UBI Banca,True,54081,Bedizzole,False,25081,10.430689811706543,45.509971618652344,Bedizzole,0306870583,10,"Via Sonvigo,13",False,0306870583,False,False,bbs-0248@bancodibrescia.it,Filiale di Bedizzole - Via Sonvigo,7396,10112,9216102d-c564-42fd-9b4a-a647189dc852,
5-OK,False,03111,BS,False,UBI Banca,True,54110,Borgosatollo,False,25010,10.237759590148926,45.489990234375,Borgosatollo,0302500330,10,"Via Iv Novembre, 140",False,0302500330,False,False,bbs-0316@bancodibrescia.it,Filiale di Borgosatollo,7398,10112,e1713894-87b0-40d7-b3a8-2ddf57a9d78c,
5-OK,False,03111,BS,False,UBI Banca,True,54131,Botticino,False,25082,10.305000305175781,45.53757858276367,Botticino,0302693421,10,"Via Valverde, 1",False,0302693421,False,False,bbs-0317@bancodibrescia.it,Filiale di Botticino - Via Valverde,7401,10112,c15e0ae3-7bb2-4b85-95de-5e0a8779d8a8,
5-OK,False,03111,BS,False,UBI Banca,True,54150,Bovezzo,False,25073,10.240955352783203,45.58544921875,Bovezzo,0302712420,10,"Via Dante Alighieri, 8/D",False,0302007776,False,False,bbs-0135@bancodibrescia.it,Filiale di Bovezzo,7403,10112,56fedc72-fae4-4f39-818b-8e1d42819d8d,
5-OK,False,03111,BS,False,UBI Banca,True,54170,Calcinato,False,25011,10.41746997833252,45.457584381103516,Calcinato,030963015,10,"Via Marconi, 51",False,030963015,False,False,bbs-0277@bancodibrescia.it,Filiale di Calcinato,7406,10112,ce8be974-464c-48fa-82b3-8e90d9b47d59,
5-OK,False,03111,BS,False,UBI Banca,True,54190,Calvisano,False,25012,10.339839935302734,45.346981048583984,Calvisano,0309968380,10,"Via Dante, 1",False,0309968380,False,False,bbs-0278@bancodibrescia.it,Filiale di Calvisano,7407,10112,07a7a850-cf4f-475d-b95d-b781e5f1647f,
5-OK,False,03111,BS,False,UBI Banca,True,54210,Capriano Del Colle,False,25020,10.12617015838623,45.45555114746094,Capriano Del Colle,0309971080,10,"Via Morari, 26",False,0309971080,False,False,bbs-0281@bancodibrescia.it,Filiale di Capriano Del Colle,7409,10112,68746657-93ea-4108-9a5b-dec07376c3c2,
5-OK,False,03111,BS,False,UBI Banca,True,54211,Capriano Del Colle,False,25020,10.13992977142334,45.48099136352539,Capriano Del Colle,0309748819,10,"Via Trento, 39 - Fraz. Fenili Benasi",False,0309748819,False,False,bbs-0252@bancodibrescia.it,Filiale di Fenili Belasi - Capriano,7410,10112,ca4a37b1-7c97-47d8-8fb8-8f29a1cab92f,
5-OK,False,03111,BS,False,UBI Banca,True,54230,Carpenedolo,False,25013,10.429360389709473,45.36457824707031,Carpenedolo,0309965026,10,"Piazza Martiri Della Liberta', 1",False,0309965026,False,False,bbs-0282@bancodibrescia.it,Filiale di Carpenedolo,7411,10112,943c02ad-9674-4218-a1fe-ee1ac84c3cf4,
5-OK,False,03111,BS,False,UBI Banca,True,54250,Castelcovati,False,25030,9.944930076599121,45.5019416809082,Castelcovati,0307080311,10,"Via De Gasperi, 48",False,0307080311,False,False,bbs-0244@bancodibrescia.it,Filiale di Castelcovati,7412,10112,454d5824-9d76-4c02-a90f-4d0bd9bd18f9,
5-OK,False,03111,BS,False,UBI Banca,True,54260,Castel Mella,False,25030,10.145310401916504,45.49721908569336,Castel Mella,0303582374,10,Via Caduti Piazza Loggia 56/a,False,0303582374,False,False,bbs-0269@bancodibrescia.it,Filiale di Castel Mella,7413,10112,13930cb3-0603-4824-adb4-1987908d1323,
5-OK,False,03111,BS,False,UBI Banca,True,54320,Cellatica,False,25060,10.17926025390625,45.582889556884766,Cellatica,0302524118,10,"Via Padre Cesare Bertulli, 8",False,0302524118,False,False,bbs-0284@bancodibrescia.it,Minisportello di Cellatica - Filiale di Gussago via IV Novembre,7419,10112,1a19e672-94c9-403b-9ac9-d8138f239ad9,
5-OK,False,03111,BS,False,UBI Banca,True,54400,Comezzano-Cizzago,False,25030,9.952474594116211,45.470619201660156,Comezzano-Cizzago,030972457,10,"Via Zanardelli, 31",False,0309701020,False,False,bbs-0180@bancodibrescia.it,Minisportello di Comezzano - Filiale di Castelcovati,7426,10112,1ce326da-4b6f-47ef-a983-9645af3f6fb2,
5-OK,False,03111,BS,False,UBI Banca,False,54411,Concesio,False,25062,10.22553539276123,45.587425231933594,Concesio,0302006972,10,"Via Europa, 8 - Centro Comme. Valtrumpino",False,0302006972,False,False,bbs-0334@bancodibrescia.it,Filiale di Concesio - Centro Comme. Valtrumpino,7428,10112,d2542047-3a3c-42e0-82be-c1445166de16,
5-OK,False,03111,BS,False,UBI Banca,True,54270,Castenedolo,False,25014,10.300180435180664,45.470821380615234,Castenedolo,0302731100,10,"Piazza Martiri Della Liberta', 4",False,0302731100,False,False,bbs-0283@bancodibrescia.it,Filiale di Castenedolo,7414,10112,6ef22904-9202-41cf-a139-be6db8c1e18b,
5-OK,False,03111,BS,False,UBI Banca,True,54450,Dello,False,25020,10.070719718933105,45.417728424072266,Dello,0309718150,10,"Piazza Roma, 36",False,0309718140,False,False,bbs-0286@bancodibrescia.it,Filiale di Dello,7434,10112,c829af24-d908-4d0d-a35c-408d88ea2d7b,
0-OK,False,03111,BS,False,UBI Banca,True,54460,Desenzano Del Garda,False,25015,10.543410301208496,45.46685028076172,Desenzano Del Garda,0309140455,10,"Via Marconi, 18",False,0309141121,False,False,bbs-0200@bancodibrescia.it,Filiale di Desenzano - Via Marconi 18,7435,10112,fe81037a-c8ce-451a-85a1-9baca9215c3f,
0-OK,False,03111,BS,False,UBI Banca,True,54461,Desenzano Del Garda,False,25015,10.533220291137695,45.469451904296875,Desenzano Del Garda,0309914767,10,"Via Marconi, 97",False,0309914767,False,False,bbs-0267@bancodibrescia.it,Minisportello di Desenzano via Marconi 97 - Filiale di Desenzano via Marconi 18,7436,10112,65a07787-080a-4a0e-9787-f00622ffb00f,
0-OK,False,03111,BS,False,UBI Banca,True,54465,Desenzano Del Garda,False,25010,10.567105293273926,45.459964752197266,Desenzano Del Garda,0309110760,10,"Via Pollio, 50",False,0309902138,False,False,bbs-0465@bancodibrescia.it,Filiale di Rivoltella,7437,10112,d16ff475-0518-44c8-8e8e-8f58ec898034,
5-OK,False,03111,BS,False,UBI Banca,True,54470,Edolo,False,25048,10.336620330810547,46.177268981933594,Edolo,036472773,10,"Via Marconi, 36/A",False,036471333,False,False,bbs-0210@bancodibrescia.it,Filiale di Edolo,7438,10112,e6f2c71b-1fc0-4f9e-8111-720c2ad22d6b,
5-OK,False,03111,BS,False,UBI Banca,True,54620,Fiesse,False,25020,10.321539878845215,45.231929779052734,Fiesse,0309950694,10,"Via Antonio Gramsci, 25",False,0309950700,False,False,bbs-0220@bancodibrescia.it,Filiale di Isorella - Minisportello di Fiesse,7441,10112,f4fc1d8b-6eb5-484d-9380-ced48bd734e0,
5-OK,False,03111,BS,False,UBI Banca,True,54511,Flero,False,25020,10.179619789123535,45.48463821411133,Flero,0303580552,10,"Via XXV Aprile, 110",False,0303580552,False,False,bbs-0329@bancodibrescia.it,Filiale di Flero,7442,10112,93435905-de2b-4e97-bb53-5c479b810110,
5-OK,False,03111,BS,False,UBI Banca,True,54540,Gardone Val Trompia,True,25063,10.185759544372559,45.68782043457031,Gardone Val Trompia,0308911261,10,"Via Giacomo Matteotti, 212",False,0308912702,False,False,bbs-0230@bancodibrescia.it,Filiale di Gardone Val Trompia,7444,10112,73017614-bb34-4b35-a6ee-a98603589d55,
5-OK,False,03111,BS,False,UBI Banca,True,54560,Gavardo,False,25085,10.443129539489746,45.583858489990234,Gavardo,0365371895,10,"Via Suor Rivetta, 1",False,0365372312,False,False,bbs-0240@bancodibrescia.it,Filiale di Gavardo,7446,10112,3550d50c-40e3-431c-a002-369bfeaffbb7,
5-OK,False,03111,BS,False,UBI Banca,True,54570,Ghedi,False,25016,10.277729988098145,45.40217971801758,Ghedi,030901431,10,"Piazza Roma, 1",False,030901431,False,False,bbs-0289@bancodibrescia.it,Filiale di Ghedi,7447,10112,8881f898-3ace-462d-951c-9664b31698c0,
5-OK,False,03111,BS,False,UBI Banca,True,54610,Iseo,False,25049,10.048359870910645,45.6573600769043,Iseo,0309821005,10,"Via Dante Alighieri, 10",False,030980106,False,False,bbs-0260@bancodibrescia.it,Filiale di Iseo,7452,10112,0e2c5d63-c409-4a87-90f3-7db619e7e6bd,
5-OK,False,03111,BS,False,UBI Banca,True,54611,Iseo,False,25040,9.98095989227295,45.66366958618164,Iseo,0309829010,10,"Via Risorgimento, 51/C (Com. Iseo)",False,0309829010,False,False,bbs-0268@bancodibrescia.it,Filiale di Clusane,7453,10112,cf635222-ba76-4607-a087-8cb1fe4c5993,
5-OK,False,03111,BS,False,UBI Banca,True,54620,Isorella,False,25010,10.325079917907715,45.30998992919922,Isorella,0309958123,10,"Via A. Zanaboni, 2",False,0309958123,False,False,bbs-0297@bancodibrescia.it,Filiale di Isorella,7454,10112,9f8197a7-b8c7-4637-adf4-9bbf79b5f794,
